Rest_No,Distribution_Centre,Request_Number,Purpose,Request_Status,Date_Opened,Date_Closed,Request_Timeline,SLA_Breach,Migration_Status,Service_Manager,Map_Display_Name,Map_Post_Code,Latitude,Longitude
823,CV,Req2572142,Additional Delivery Request,Closed,25/09/2018,25/09/2018,0.221527778,0,6-Closed,ALAN GIBSON,823-UTTOXETER,ST145AA,52.91108995,-1.864731865
1540,HW,Req2572762,Additional Delivery Request,Closed,25/09/2018,25/09/2018,0.014583333,0,6-Closed,GREG MCLACHLAN,1540-NOTTINGHAM VICTORIA CENTRE,NG1 3QN,,
95,HH,Req2577729,Additional Delivery Request,Closed,27/09/2018,27/09/2018,0.000694444,0,6-Closed,FRANCESCA PARKER,95-OLDHAM,OL11JA,53.54179586,-2.112819522
515,HH,Req2577725,Additional Delivery Request,Closed,27/09/2018,27/09/2018,0,0,6-Closed,CALLUM MUNRO,515-IRVINE D/T,KA128AG,55.60998858,-4.671972648
636,HH,Req2577735,Additional Delivery Request,Closed,27/09/2018,27/09/2018,0.000694444,0,6-Closed,CALLUM MUNRO,636-GORGIE ROAD EDINBURGH,EH112QL,55.9363424,-3.2393795
723,HH,Req2577732,Additional Delivery Request,Closed,27/09/2018,27/09/2018,0.000694444,0,6-Closed,ALAN GIBSON,723-SILK RETAIL PARK (MACCLESFIELD),SK102SF,53.27230445,-2.118599912
806,DB,Req2577731,Additional Delivery Request,Closed,27/09/2018,27/09/2018,0.000694444,0,6-Closed,TRACEY TALBOT,806-CARRICKFERGUS,BT38 8BE,,
865,HW,Req2577728,Additional Delivery Request,Closed,27/09/2018,27/09/2018,0.000694444,0,6-Closed,SARAH COTTOY,865-LOWESTOFT 2,NR337BG,52.44724203,1.727006357
881,CV,Req2577721,Additional Delivery Request,Closed,27/09/2018,27/09/2018,0,0,6-Closed,JAMES LYON,881-CRYSTAL PEAKS 2,S207JJ,53.34516463,-1.356525818
1023,CV,Req2577722,Additional Delivery Request,Closed,27/09/2018,27/09/2018,0,0,6-Closed,ALAN GIBSON,1023-CHIRK,LL145AZ,52.95035378,-3.043339725
1133,HH,Req2577727,Additional Delivery Request,Closed,27/09/2018,27/09/2018,0,0,6-Closed,CALLUM MUNRO,1133-ASHINGTON,NE639JZ,55.18733176,-1.567267692
1153,HW,Req2577724,Additional Delivery Request,Closed,27/09/2018,27/09/2018,0,0,6-Closed,SARAH COTTOY,1153-STOTFOLD MSA,SG75EX,52.02944506,-0.213942542
1167,HW,Req2577734,Additional Delivery Request,Closed,27/09/2018,27/09/2018,0.000694444,0,6-Closed,MARK PHIPPS,1167-MARKET HARBOROUGH,LE167FD,52.51124531,-0.942708228
1205,HW,Req2577736,Additional Delivery Request,Closed,27/09/2018,27/09/2018,0.000694444,0,6-Closed,ALAN GIBSON,1205-SWADLINCOTE,DE118JU,52.7747474,-1.5550779
1223,HH,Req2577720,Additional Delivery Request,Closed,27/09/2018,27/09/2018,0,0,6-Closed,JAMES LYON,1223-LEEDS (ELLAND ROAD),LS11 8BY,53.77717684,-1.571531514
1240,BA,Req2577737,Additional Delivery Request,Closed,27/09/2018,27/09/2018,0.000694444,0,6-Closed,JASON MAVRODARIS,1240-WORLE,BS226BL,51.3617699,-2.9091498
1272,HH,Req2577719,Additional Delivery Request,Closed,27/09/2018,27/09/2018,0,0,6-Closed,JAMES LYON,1272-BRIGHOUSE,HD64BT,53.7179406,-1.7783356
1440,HW,Req2577723,Additional Delivery Request,Closed,27/09/2018,27/09/2018,0,0,6-Closed,KATIE KIRK,1440-SYDENHAM,SE26 4PU,51.42986695,-0.033947147
1468,CV,Req2577726,Additional Delivery Request,Closed,27/09/2018,27/09/2018,0,0,6-Closed,JASON MAVRODARIS,1468-BANBURY GATE,OX16 3AB,52.0311917,-1.296836
7066,DB,Req2577730,Additional Delivery Request,Closed,27/09/2018,27/09/2018,0.000694444,0,6-Closed,TRACEY TALBOT,7066-WESTSIDE GALWAY,Galway,,
7091,DB,Req2577733,Additional Delivery Request,Closed,27/09/2018,27/09/2018,0.000694444,0,6-Closed,TRACEY TALBOT,7091-DUBLIN AIRPORT DRIVE THRU,Dublin Airport,,
975,HH,Req2577718,Additional Delivery Request,Closed,27/09/2018,27/09/2018,0,0,6-Closed,CALLUM MUNRO,975-HAMILTON PALACE,ML36AD,55.77845413,-4.029352851
228,HW,Req2577750,Additional Delivery Request,Closed,27/09/2018,27/09/2018,0,0,6-Closed,KATIE KIRK,228-HOLBORN,WC1V 2JS,51.5178543,-0.1197285
430,HW,Req2577751,Additional Delivery Request,Closed,27/09/2018,27/09/2018,0,0,6-Closed,ALAN GIBSON,430-MARKEATON D/T,DE224AA,52.9287504,-1.5061212
483,HW,Req2577757,Additional Delivery Request,Closed,27/09/2018,27/09/2018,0,0,6-Closed,KATY OBRIEN,483-PADDINGTON,W21HU,51.51625096,-0.174866487
486,HW,Req2577755,Additional Delivery Request,Closed,27/09/2018,27/09/2018,0,0,6-Closed,SARAH COTTOY,486-RICHMOND,TW91DN,51.462434,-0.3024885
496,CV,Req2577747,Additional Delivery Request,Closed,27/09/2018,27/09/2018,0,0,6-Closed,GREG MCLACHLAN,496-HIGH ST SHEFFIELD,S12GE,53.38244826,-1.467544884
530,HW,Req2577756,Additional Delivery Request,Closed,27/09/2018,27/09/2018,0,0,6-Closed,KATIE KIRK,530-FLEET STREET,EC4A2DQ,51.5143718,-0.1078375
637,HH,Req2577748,Additional Delivery Request,Closed,27/09/2018,27/09/2018,0,0,6-Closed,CALLUM MUNRO,637-TELFORD ROAD EDINBURGH,EH42NF,55.9623697,-3.2397629
676,HW,Req2577749,Additional Delivery Request,Closed,27/09/2018,27/09/2018,0,0,6-Closed,GREG MCLACHLAN,676-ANGEL ROW (NOTTINGHAM),NG16HL,52.95354329,-1.152550675
702,HW,Req2577741,Additional Delivery Request,Closed,27/09/2018,27/09/2018,0,0,6-Closed,MARK PHIPPS,702-IPSWICH  WHITTON ASDA,IP15NP,52.08294157,1.11357692
753,CV,Req2577740,Additional Delivery Request,Closed,27/09/2018,27/09/2018,0,0,6-Closed,ALAN GIBSON,753-EVESHAM,WR11 6UT,52.07699287,-1.939400969
786,HH,Req2577754,Additional Delivery Request,Closed,27/09/2018,27/09/2018,0,0,6-Closed,FRANCESCA PARKER,786-HARPURHEY,M94DH,53.51273586,-2.212267874
938,HH,Req2577738,Additional Delivery Request,Closed,27/09/2018,27/09/2018,0,0,6-Closed,ALISON RALPH,938-LEYLAND,PR253LZ,53.69765387,-2.690715148
1016,DB,Req2577744,Additional Delivery Request,Closed,27/09/2018,27/09/2018,0,0,6-Closed,TRACEY TALBOT,1016-OMAGH,BT78 1QZ,,
1017,DB,Req2577742,Additional Delivery Request,Closed,27/09/2018,27/09/2018,0,0,6-Closed,TRACEY TALBOT,1017-COOKSTOWN,BT80 8JR,,
1067,HW,Req2577753,Additional Delivery Request,Closed,27/09/2018,27/09/2018,0,0,6-Closed,KATY OBRIEN,1067-WOOD GREEN SPOUTERS CORNER,N226EJ,51.59697152,-0.108709111
1082,BA,Req2577745,Additional Delivery Request,Closed,27/09/2018,27/09/2018,0,0,6-Closed,DAMIAN BOWBRICK,1082-SWANSEA,SA18LD,51.62015765,-3.912729978
1171,BA,Req2577739,Additional Delivery Request,Closed,27/09/2018,27/09/2018,0,0,6-Closed,DAMIAN BOWBRICK,1171-PETERSFIELD,GU323BS,51.008661,-0.9524387
1212,DB,Req2577743,Additional Delivery Request,Closed,27/09/2018,27/09/2018,0,0,6-Closed,TRACEY TALBOT,1212-WATERSIDE,BT47 6SA,,
1243,HH,Req2577746,Additional Delivery Request,Closed,27/09/2018,27/09/2018,0,0,6-Closed,CALLUM MUNRO,1243-EDINBURGH (SEAFIELD ROAD),EH67LJ,55.9667962,-3.1415355
1263,HW,Req2577752,Additional Delivery Request,Closed,27/09/2018,27/09/2018,0,0,6-Closed,KATY OBRIEN,1263-BOW,E32SP,51.5297075,-0.0150025
2,HW,Req2577775,Additional Delivery Request,Closed,27/09/2018,27/09/2018,0,0,6-Closed,KATY OBRIEN,2-SEVEN SISTERS,N76AJ,51.55836534,-0.119241076
68,HW,Req2577765,Additional Delivery Request,Closed,27/09/2018,27/09/2018,0,0,6-Closed,SARAH COTTOY,68-KILBURN,NW66JJ,51.5395059,-0.1957397
93,BA,Req2577787,Additional Delivery Request,Closed,27/09/2018,27/09/2018,0,0,6-Closed,DAMIAN BOWBRICK,93-CAMBERLEY,GU153RB,51.3379326,-0.7439981
103,HH,Req2577762,Additional Delivery Request,Closed,27/09/2018,27/09/2018,0,0,6-Closed,ALISON RALPH,103-WIGAN 1,WN11UP,53.54849531,-2.629738825
202,HH,Req2577783,Additional Delivery Request,Closed,27/09/2018,27/09/2018,0,0,6-Closed,ALISON RALPH,202-BIRKENHEAD,CH416EB,53.3892758,-3.0299859
223,HW,Req2577771,Additional Delivery Request,Closed,27/09/2018,27/09/2018,0,0,6-Closed,SARAH COTTOY,223-NEASDEN,NW100EA,51.5632237,-0.259163
226,HH,Req2577763,Additional Delivery Request,Closed,27/09/2018,27/09/2018,0,0,6-Closed,JAMES LYON,226-LEEDS 2,LS28LQ,53.80016486,-1.543786304
268,HW,Req2577764,Additional Delivery Request,Closed,27/09/2018,27/09/2018,0,0,6-Closed,KATY OBRIEN,268-LEYTONSTONE,E111HR,51.5708375,0.014149
361,CV,Req2577777,Additional Delivery Request,Closed,27/09/2018,27/09/2018,0,0,6-Closed,JAMES LYON,361-MEADOW HALL 1,S91EP,53.41303922,-1.412461068
363,HH,Req2577786,Additional Delivery Request,Closed,27/09/2018,27/09/2018,0,0,6-Closed,FRANCESCA PARKER,363-FORUM D/T - STOCKPORT (2),SK13SS,53.40748945,-2.160688993
406,HW,Req2577761,Additional Delivery Request,Closed,27/09/2018,27/09/2018,0,0,6-Closed,KATY OBRIEN,406-OLD KENT ROAD 'DRIVE THRU',SE15BA,51.48438526,-0.068433726
425,HH,Req2577780,Additional Delivery Request,Closed,27/09/2018,27/09/2018,0,0,6-Closed,CALLUM MUNRO,425-E KILBRIDE D/T,G741HE,55.7608892,-4.1750959
443,HH,Req2577773,Additional Delivery Request,Closed,27/09/2018,27/09/2018,0,0,6-Closed,CALLUM MUNRO,443-LINWOOD D/T,PA33AT,55.8457167,-4.469438976
452,CV,Req2577788,Additional Delivery Request,Closed,27/09/2018,27/09/2018,0,0,6-Closed,ALAN GIBSON,452-COVENTRY '3' DRIVE THRU,CV58BW,52.411292,-1.5283691
452,CV,Req2577789,Additional Delivery Request,Closed,27/09/2018,27/09/2018,0,0,6-Closed,ALAN GIBSON,452-COVENTRY '3' DRIVE THRU,CV58BW,52.411292,-1.5283691
459,HW,Req2577768,Additional Delivery Request,Closed,27/09/2018,27/09/2018,0,0,6-Closed,KATY OBRIEN,459-CANNING TOWN DRIVE THRU,E161EN,51.5312257,0.0447685
553,HW,Req2577785,Additional Delivery Request,Closed,27/09/2018,27/09/2018,0,0,6-Closed,SARAH COTTOY,553-NENE PARK (DRIVE THRU ),NN55QJ,52.23678243,-0.936632528
579,BA,Req2577770,Additional Delivery Request,Closed,27/09/2018,27/09/2018,0,0,6-Closed,KATY OBRIEN,579-CHESTFIELD (HERNE BAY),CT53JE,51.3596329,1.0646776
627,HW,Req2577782,Additional Delivery Request,Closed,27/09/2018,27/09/2018,0,0,6-Closed,KATIE KIRK,627-KINGS CROSS,NW12RY,51.5298222,-0.1230272
683,HH,Req2577774,Additional Delivery Request,Closed,27/09/2018,27/09/2018,0,0,6-Closed,FRANCESCA PARKER,683-SNIPE RETAIL PARK,OL70DN,53.47869444,-2.124735872
870,CV,Req2577781,Additional Delivery Request,Closed,27/09/2018,27/09/2018,0,0,6-Closed,ALAN GIBSON,870-KINGSWINFORD D/T,DY68WT,52.5000738,-2.151934
877,BA,Req2577776,Additional Delivery Request,Closed,27/09/2018,27/09/2018,0,0,6-Closed,JASON MAVRODARIS,877-STREET,BA160HW,51.1260779,-2.7563991
1025,HH,Req2577778,Additional Delivery Request,Closed,27/09/2018,27/09/2018,0,0,6-Closed,ALISON RALPH,1025-HUYTON 2,L363YB,53.42226099,-2.862529346
1043,HH,Req2577790,Additional Delivery Request,Closed,27/09/2018,27/09/2018,0,0,6-Closed,CALLUM MUNRO,1043-GLASGOW EASTERHOUSE,G349PE,55.8688725,-4.1199774
1290,HH,Req2577766,Additional Delivery Request,Closed,27/09/2018,27/09/2018,0,0,6-Closed,CALLUM MUNRO,1290-CASTLEMILK,G459AA,55.8066819,-4.2350996
1383,CV,Req2577779,Additional Delivery Request,Closed,27/09/2018,27/09/2018,0,0,6-Closed,ALAN GIBSON,1383-STOKE LONGTON,ST3 2JB,52.98988486,-2.138932057
1433,BA,Req2577784,Additional Delivery Request,Closed,27/09/2018,27/09/2018,0,0,6-Closed,DAMIAN BOWBRICK,1433-FARNBOROUGH 2,GU14 7JT,51.2921773,-0.7538231
7069,DB,Req2577769,Additional Delivery Request,Closed,27/09/2018,27/09/2018,0,0,6-Closed,TRACEY TALBOT,7069-MIDDLETON,Cork,,
999,HW,Req2577767,Additional Delivery Request,Closed,27/09/2018,27/09/2018,0,0,6-Closed,KATY OBRIEN,999-PURLEY-THE COLONNADES,CR04RQ,51.3687207,-0.1180573
974,HH,Req2577772,Additional Delivery Request,Closed,27/09/2018,27/09/2018,0,0,6-Closed,JAMES LYON,974-SUNDERLAND RYHOPE ROAD,SR20SP,54.87615618,-1.359357988
21,HW,Req2577798,Additional Delivery Request,Closed,27/09/2018,27/09/2018,0,0,6-Closed,KATY OBRIEN,21-WOOD GREEN,N226BB,51.5929155,-0.1069286
115,BA,Req2577808,Additional Delivery Request,Closed,27/09/2018,27/09/2018,0,0,6-Closed,JASON MAVRODARIS,115-SWINDON (1) - BRUNEL CENTRE,SN11LD,51.5612374,-1.7864254
227,CV,Req2577809,Additional Delivery Request,Closed,27/09/2018,27/09/2018,0,0,6-Closed,ALAN GIBSON,227-COVENTRY (1) - WALSGRAVE,CV22RZ,52.4308666,-1.4384864
236,BA,Req2577804,Additional Delivery Request,Closed,27/09/2018,27/09/2018,0,0,6-Closed,DAMIAN BOWBRICK,236-NEWPORT (WALES),NP201GF,51.5884557,-2.997245
242,HW,Req2577793,Additional Delivery Request,Closed,27/09/2018,27/09/2018,0,0,6-Closed,SARAH COTTOY,242-NORTHAMPTON (2) - WESTERN FAVELL,NN38YU,52.25702832,-0.835482539
279,HW,Req2577792,Additional Delivery Request,Closed,27/09/2018,27/09/2018,0,0,6-Closed,SARAH COTTOY,279-WATFORD,WD250NH,51.69230092,-0.386038035
367,HW,Req2577795,Additional Delivery Request,Closed,27/09/2018,27/09/2018,0,0,6-Closed,KATY OBRIEN,367-DAGENHAM 2 DRIVE THRU,RM109LU,51.53122174,0.155903742
429,HW,Req2577794,Additional Delivery Request,Closed,27/09/2018,27/09/2018,0,0,6-Closed,KATY OBRIEN,429-WANDSWORTH 2 'DRIVE THRU',SW181JT,51.46224228,-0.187055944
590,HW,Req2577800,Additional Delivery Request,Closed,27/09/2018,27/09/2018,0,0,6-Closed,ALAN GIBSON,590-BURTON 2,DE142WG,52.7939318,-1.667946
591,BA,Req2577799,Additional Delivery Request,Closed,27/09/2018,27/09/2018,0,0,6-Closed,JASON MAVRODARIS,591-GREENBRIDGE (SWINDON),SN33SG,51.5710755,-1.7549538
646,HH,Req2577811,Additional Delivery Request,Closed,27/09/2018,27/09/2018,0,0,6-Closed,CALLUM MUNRO,646-CUMBERNAULD,G671NF,55.9442441,-3.9761767
685,HW,Req2577791,Additional Delivery Request,Closed,27/09/2018,27/09/2018,0,0,6-Closed,KATY OBRIEN,685-NEWBURY PARK,IG27RH,51.57389323,0.084205136
749,HH,Req2577797,Additional Delivery Request,Closed,27/09/2018,27/09/2018,0,0,6-Closed,CALLUM MUNRO,749-GREENOCK,PA152AD,55.94422674,-4.731908812
798,HW,Req2577802,Additional Delivery Request,Closed,27/09/2018,27/09/2018,0,0,6-Closed,SARAH COTTOY,798-ENFIELD 2,EN13RR,51.6501038,-0.0588096
810,CV,Req2577805,Additional Delivery Request,Closed,27/09/2018,27/09/2018,0,0,6-Closed,ALAN GIBSON,810-WEDNESFIELD D/T fao sandra,WV111BP,52.59691166,-2.090278445
810,CV,Req2577810,Additional Delivery Request,Closed,27/09/2018,27/09/2018,0,0,6-Closed,ALAN GIBSON,810-WEDNESFIELD D/T fao sandra,WV111BP,52.59691166,-2.090278445
1028,HH,Req2577796,Additional Delivery Request,Closed,27/09/2018,27/09/2018,0,0,6-Closed,JAMES LYON,1028-CATTERICK,DL93EJ,54.374775,-1.7229393
1080,HH,Req2577803,Additional Delivery Request,Closed,27/09/2018,27/09/2018,0,0,6-Closed,CALLUM MUNRO,1080-KIRKINTILLOCH,G661SY,55.9447637,-4.154952
1269,BA,Req2577807,Additional Delivery Request,Closed,27/09/2018,27/09/2018,0,0,6-Closed,KATY OBRIEN,1269-BUCK BARN,RH138LW,50.98348694,-0.342469581
1397,BA,Req2577806,Additional Delivery Request,Closed,27/09/2018,27/09/2018,0,0,6-Closed,DAMIAN BOWBRICK,1397-NEWBRIDGE CAERPHILLY,NP11 5GH,51.66248278,-3.140401234
310,CV,Req2577818,Additional Delivery Request,Closed,27/09/2018,27/09/2018,0,0,6-Closed,ALAN GIBSON,310-OLTON D/T,B927HX,52.4416497,-1.8113128
436,BA,Req2577816,Additional Delivery Request,Closed,27/09/2018,27/09/2018,0,0,6-Closed,DAMIAN BOWBRICK,436-CARDIFF 11 'DRIVE THRU',CF239AE,51.4965067,-3.1402723
670,HH,Req2577823,Additional Delivery Request,Closed,27/09/2018,27/09/2018,0,0,6-Closed,CALLUM MUNRO,670-FORT WILLIAM,PH336AN,56.82129124,-5.104918562
674,HW,Req2577820,Additional Delivery Request,Closed,27/09/2018,27/09/2018,0,0,6-Closed,ALAN GIBSON,674-KINGSMILL (SUTTON-IN-ASHFIELD),NG174JP,53.1316599,-1.2349029
697,BA,Req2577819,Additional Delivery Request,Closed,27/09/2018,27/09/2018,0,0,6-Closed,DAMIAN BOWBRICK,697-SOUTHAMPTON ESPLANADE,SO151BA,50.90420823,-1.41005269
698,HW,Req2577815,Additional Delivery Request,Closed,27/09/2018,27/09/2018,0,0,6-Closed,SARAH COTTOY,698-STEVENAGE (LEISURE),SG12UA,51.89979242,-0.208623795
765,BA,Req2577822,Additional Delivery Request,Closed,27/09/2018,27/09/2018,0,0,6-Closed,JASON MAVRODARIS,765-FALMOUTH,TR112ER,50.16020632,-5.086195024
1174,HH,Req2577824,Additional Delivery Request,Closed,27/09/2018,27/09/2018,0,0,6-Closed,CALLUM MUNRO,1174-BLYTH,NE245ND,55.13001776,-1.544723385
1208,BA,Req2577821,Additional Delivery Request,Closed,27/09/2018,27/09/2018,0,0,6-Closed,KATY OBRIEN,1208-HASTINGS 2,TN377SQ,50.88729287,0.549001498
981,BA,Req2577817,Additional Delivery Request,Closed,27/09/2018,27/09/2018,0,0,6-Closed,KATY OBRIEN,981-UCKFIELD,TN221QL,50.96920725,0.090163539
251,HW,Req2577843,Additional Delivery Request,Closed,27/09/2018,27/09/2018,0,0,6-Closed,MARK PHIPPS,251-CORBY,NN171NQ,52.4874268,-0.7019712
346,HW,Req2577837,Additional Delivery Request,Closed,27/09/2018,27/09/2018,0,0,6-Closed,MARK PHIPPS,346-PETERBOROUGH (2),PE15XL,52.5787791,-0.2300264
604,HW,Req2577841,Additional Delivery Request,Closed,27/09/2018,27/09/2018,0,0,6-Closed,KATIE KIRK,604-STREATHAM PLACE,SW24PZ,51.4458843,-0.1251904
651,BA,Req2577831,Additional Delivery Request,Closed,27/09/2018,27/09/2018,0,0,6-Closed,KATY OBRIEN,651-CRAWLEY 2,RH10 2NF,51.1237132,-0.1918387
669,HW,Req2577829,Additional Delivery Request,Closed,27/09/2018,27/09/2018,0,0,6-Closed,MARK PHIPPS,669-BECCLES,NR340HF,52.474612,1.546448872
681,HW,Req2577840,Additional Delivery Request,Closed,27/09/2018,27/09/2018,0,0,6-Closed,SARAH COTTOY,681-GAPTON HALL,NR310LZ,52.5978034,1.711085994
699,HW,Req2577836,Additional Delivery Request,Closed,27/09/2018,27/09/2018,0,0,6-Closed,SARAH COTTOY,699-CROYDON VALLEY PARK,CR04YA,51.3781229,-0.124526
710,BA,Req2577827,Additional Delivery Request,Closed,27/09/2018,27/09/2018,0,0,6-Closed,JASON MAVRODARIS,710-BASINGSTOKE 2,RG224AN,51.25093173,-1.108857912
966,BA,Req2577845,Additional Delivery Request,Closed,27/09/2018,27/09/2018,0,0,6-Closed,KATY OBRIEN,966-CRAWLEY 3,RH10 2LR,51.12023363,-0.189645345
971,CV,Req2577844,Additional Delivery Request,Closed,27/09/2018,27/09/2018,0,0,6-Closed,ALAN GIBSON,971-RUSHALL - GEORGIES,WS41JW,52.60643314,-1.961047211
1003,BA,Req2577842,Additional Delivery Request,Closed,27/09/2018,27/09/2018,0,0,6-Closed,JASON MAVRODARIS,1003-DORCHESTER,DT29DL,50.7117345,-2.4744582
1059,HH,Req2577832,Additional Delivery Request,Closed,27/09/2018,27/09/2018,0,0,6-Closed,CALLUM MUNRO,1059-DUNFERMLINE (2),KY112AB,56.06078993,-3.425059875
1141,HW,Req2577828,Additional Delivery Request,Closed,27/09/2018,27/09/2018,0,0,6-Closed,MARK PHIPPS,1141-PETERBOROUGH MSA,PE73UQ,52.53158154,-0.320530746
1224,HW,Req2577838,Additional Delivery Request,Closed,27/09/2018,27/09/2018,0,0,6-Closed,MARK PHIPPS,1224-BOSTON 2,PE218XZ,52.97868909,-0.023930306
1301,HW,Req2577833,Additional Delivery Request,Closed,27/09/2018,27/09/2018,0,0,6-Closed,JAMES LYON,1301-SKEGNESS 3,PE253AR,53.19108649,0.349599231
1489,HH,Req2577839,Additional Delivery Request,Closed,27/09/2018,27/09/2018,0,0,6-Closed,CALLUM MUNRO,1489-ABERDEEN KITTYBREWSTER,AB24 3LJ,57.1613429,-2.1121401
1498,BA,Req2577825,Additional Delivery Request,Closed,27/09/2018,27/09/2018,0,0,6-Closed,DAMIAN BOWBRICK,1498-WATERLOOVILLE,PO7 7TZ,50.9135267,-1.0798755
1499,BA,Req2577830,Additional Delivery Request,Closed,27/09/2018,27/09/2018,0,0,6-Closed,KATY OBRIEN,1499-TONBRIDGE DT,TN9 1PP,,
7009,DB,Req2577834,Additional Delivery Request,Closed,27/09/2018,27/09/2018,0,0,6-Closed,TRACEY TALBOT,7009-SHOP ST GALWAY,Galway,,
7082,DB,Req2577826,Additional Delivery Request,Closed,27/09/2018,27/09/2018,0,0,6-Closed,TRACEY TALBOT,7082-CASHEL,Tipperary,,
273,HH,Req2577851,Additional Delivery Request,Closed,27/09/2018,27/09/2018,0,0,6-Closed,CALLUM MUNRO,273-FALKIRK,FK11NR,55.9991088,-3.7830724
323,CV,Req2577863,Additional Delivery Request,Closed,27/09/2018,27/09/2018,0,0,6-Closed,ALAN GIBSON,323-CANNOCK D/T,WS111TD,52.67812271,-2.047671767
455,HW,Req2577853,Additional Delivery Request,Closed,27/09/2018,27/09/2018,0,0,6-Closed,SARAH COTTOY,455-EALING,W5 2ND,51.5140087,-0.3039733
480,BA,Req2577848,Additional Delivery Request,Closed,27/09/2018,27/09/2018,0,0,6-Closed,DAMIAN BOWBRICK,480-BRIDGEND DRIVE THRU,CF313XX,51.496041,-3.5676235
560,HH,Req2577860,Additional Delivery Request,Closed,27/09/2018,27/09/2018,0,0,6-Closed,JAMES LYON,560-SUNDERLAND 2 D/T,SR53NU,54.91928628,-1.432498232
585,BA,Req2577847,Additional Delivery Request,Closed,27/09/2018,27/09/2018,0,0,6-Closed,KATY OBRIEN,585-BURGESS HILL,RH159AR,50.95392314,-0.133609861
595,BA,Req2577865,Additional Delivery Request,Closed,27/09/2018,27/09/2018,0,0,6-Closed,JASON MAVRODARIS,595-FERNDOWN,BH229BB,50.8115423,-1.8734145
611,BA,Req2577849,Additional Delivery Request,Closed,27/09/2018,27/09/2018,0,0,6-Closed,KATY OBRIEN,611-BRIGHTON MARINA,BN25UT,50.8119665,-0.1053194
729,BA,Req2577852,Additional Delivery Request,Closed,27/09/2018,27/09/2018,0,0,6-Closed,JASON MAVRODARIS,729-PLYMOUTH: TAVISTOCK ROAD,PL65DA,50.41462461,-4.126907392
734,HH,Req2577859,Additional Delivery Request,Closed,27/09/2018,27/09/2018,0,0,6-Closed,ALISON RALPH,734-WIGAN : MARUS BRIDGE,WN36XA,53.52045824,-2.655174464
876,HH,Req2577861,Additional Delivery Request,Closed,27/09/2018,27/09/2018,0,0,6-Closed,FRANCESCA PARKER,876-PENDLEBURY,M278BB,53.51447823,-2.324820909
1018,HW,Req2577850,Additional Delivery Request,Closed,27/09/2018,27/09/2018,0,0,6-Closed,KATY OBRIEN,1018-BOBBING,ME98RZ,51.35127961,0.706943486
1109,BA,Req2577854,Additional Delivery Request,Closed,27/09/2018,27/09/2018,0,0,6-Closed,KATY OBRIEN,1109-EAST GRINSTEAD,RH191ET,51.12832428,-0.013324466
1187,HW,Req2577862,Additional Delivery Request,Closed,27/09/2018,27/09/2018,0,0,6-Closed,KATY OBRIEN,1187-ROCHESTER 2,ME24DW,51.4008323,0.515043682
1206,BA,Req2577864,Additional Delivery Request,Closed,27/09/2018,27/09/2018,0,0,6-Closed,KATY OBRIEN,1206-EARLSWOOD,RH15AA,51.2136787,-0.1704476
1215,BA,Req2577867,Additional Delivery Request,Closed,27/09/2018,27/09/2018,0,0,6-Closed,DAMIAN BOWBRICK,1215-PEMBROKE DOCK,SA726BP,51.69364555,-4.93244413
1242,HW,Req2577855,Additional Delivery Request,Closed,27/09/2018,27/09/2018,0,0,6-Closed,MARK PHIPPS,1242-KETTERING (ORION WAY),NN156NL,52.37877659,-0.722847637
1330,BA,Req2577846,Additional Delivery Request,Closed,27/09/2018,27/09/2018,0,0,6-Closed,JASON MAVRODARIS,1330-PAIGNTON,TQ47PE,50.42026627,-3.597677586
1391,BA,Req2577866,Additional Delivery Request,Closed,27/09/2018,27/09/2018,0,0,6-Closed,JASON MAVRODARIS,1391-ROWNHAMS SOUTHBOUND  MSA,SO16 8AP,50.95263028,-1.452063997
1486,HH,Req2577858,Additional Delivery Request,Closed,27/09/2018,27/09/2018,0,0,6-Closed,JAMES LYON,1486-ANLABY,HU3 6UB,53.7436555,-0.3873095
68,HW,Req2577888,Additional Delivery Request,Closed,27/09/2018,27/09/2018,0,0,6-Closed,SARAH COTTOY,68-KILBURN,NW66JJ,51.5395059,-0.1957397
108,BA,Req2577886,Additional Delivery Request,Closed,27/09/2018,27/09/2018,0,0,6-Closed,KATY OBRIEN,108-MARGATE,CT91JT,51.3861463,1.3816881
602,HW,Req2577887,Additional Delivery Request,Closed,27/09/2018,27/09/2018,0,0,6-Closed,MARK PHIPPS,602-HARLOW RETAIL PARK,CM202AB,51.7817745,0.109967
635,HH,Req2577869,Additional Delivery Request,Closed,27/09/2018,27/09/2018,0,0,6-Closed,FRANCESCA PARKER,635-OLDHAM BROADWAY,OL25HX,53.55819048,-2.138526106
664,HH,Req2577874,Additional Delivery Request,Closed,27/09/2018,27/09/2018,0,0,6-Closed,CALLUM MUNRO,664-LIVINGSTON,EH546QX,55.8827321,-3.5194053
753,CV,Req2577879,Additional Delivery Request,Closed,27/09/2018,27/09/2018,0,0,6-Closed,ALAN GIBSON,753-EVESHAM,WR11 6UT,52.07699287,-1.939400969
891,CV,Req2577876,Additional Delivery Request,Closed,27/09/2018,27/09/2018,0,0,6-Closed,ALAN GIBSON,891-BILSTON,WV140EZ,52.5639345,-2.081403469
1078,HH,Req2577870,Additional Delivery Request,Closed,27/09/2018,27/09/2018,0,0,6-Closed,ALISON RALPH,1078-CAERNARVON,LL552HS,53.13371648,-4.268810665
1122,DB,Req2577873,Additional Delivery Request,Closed,27/09/2018,27/09/2018,0,0,6-Closed,TRACEY TALBOT,1122-STRAND ROAD,BT48 7PU,,
1153,HW,Req2577884,Additional Delivery Request,Closed,27/09/2018,27/09/2018,0,0,6-Closed,SARAH COTTOY,1153-STOTFOLD MSA,SG75EX,52.02944506,-0.213942542
1183,HW,Req2577872,Additional Delivery Request,Closed,27/09/2018,27/09/2018,0,0,6-Closed,MARK PHIPPS,1183-SLEAFORD,NG348NP,53.01263641,-0.423474735
1217,HW,Req2577868,Additional Delivery Request,Closed,27/09/2018,27/09/2018,0,0,6-Closed,MARK PHIPPS,1217-SOUTHCHURCH,SS24BN,51.55224544,0.732927719
1231,CV,Req2577875,Additional Delivery Request,Closed,27/09/2018,27/09/2018,0,0,6-Closed,JAMES LYON,1231-LACEBY (CLEETHORPE NORTH),DN377SQ,53.5496764,-0.1396523
1301,HW,Req2577882,Additional Delivery Request,Closed,27/09/2018,27/09/2018,0,0,6-Closed,JAMES LYON,1301-SKEGNESS 3,PE253AR,53.19108649,0.349599231
1428,HH,Req2577877,Additional Delivery Request,Closed,27/09/2018,27/09/2018,0,0,6-Closed,ALISON RALPH,1428-KILLINGTON LAKE MSA,LA8 0NW,54.31051804,-2.628102603
1430,BA,Req2577871,Additional Delivery Request,Closed,27/09/2018,27/09/2018,0,0,6-Closed,JASON MAVRODARIS,1430-SUTTON SCOTNEY NORTH,SO21 3JY,51.1563271,-1.3442863
1430,BA,Req2577880,Additional Delivery Request,Closed,27/09/2018,27/09/2018,0,0,6-Closed,JASON MAVRODARIS,1430-SUTTON SCOTNEY NORTH,SO21 3JY,51.1563271,-1.3442863
7006,DB,Req2577885,Additional Delivery Request,Closed,27/09/2018,27/09/2018,0,0,6-Closed,TRACEY TALBOT,7006-NUTGROVE,Dublin 14,,
990,HH,Req2577881,Additional Delivery Request,Closed,27/09/2018,27/09/2018,0,0,6-Closed,CALLUM MUNRO,990-PETERHEAD,AB423JL,57.4872794,-1.8039496
89,BA,Req2577905,Additional Delivery Request,Closed,27/09/2018,27/09/2018,0,0,6-Closed,DAMIAN BOWBRICK,89-PORTSMOUTH - COMMERCIAL ROAD,PO14BJ,50.8027351,-1.0882034
93,BA,Req2577899,Additional Delivery Request,Closed,27/09/2018,27/09/2018,0,0,6-Closed,DAMIAN BOWBRICK,93-CAMBERLEY,GU153RB,51.3379326,-0.7439981
134,BA,Req2577920,Additional Delivery Request,Closed,27/09/2018,27/09/2018,0,0,6-Closed,SARAH COTTOY,134-BRACKNELL,RG121DP,51.4168801,-0.7512552
179,BA,Req2577897,Additional Delivery Request,Closed,27/09/2018,27/09/2018,0,0,6-Closed,KATY OBRIEN,179-BRIGHTON (2) - LONDON ROAD,BN14JH,50.8299555,-0.1355907
206,HH,Req2577914,Additional Delivery Request,Closed,27/09/2018,27/09/2018,0,0,6-Closed,FRANCESCA PARKER,206-FALLOWFIELD D/T,M146XQ,53.44062552,-2.219946766
257,BA,Req2577891,Additional Delivery Request,Closed,27/09/2018,27/09/2018,0,0,6-Closed,DAMIAN BOWBRICK,257-CARDIFF,CF1 4BU,51.4815368,-3.1783062
268,HW,Req2577909,Additional Delivery Request,Closed,27/09/2018,27/09/2018,0,0,6-Closed,KATY OBRIEN,268-LEYTONSTONE,E111HR,51.5708375,0.014149
291,CV,Req2577908,Additional Delivery Request,Closed,27/09/2018,27/09/2018,0,0,6-Closed,JAMES LYON,291-CRYSTAL PEAKS,S207PJ,53.34202664,-1.351376253
314,CV,Req2577910,Additional Delivery Request,Closed,27/09/2018,27/09/2018,0,0,6-Closed,ALAN GIBSON,314-PENN ROAD D/T,WV30LH,52.57762119,-2.135586314
376,HW,Req2577896,Additional Delivery Request,Closed,27/09/2018,27/09/2018,0,0,6-Closed,GREG MCLACHLAN,376-MARKHAM MOOR ROUNDABOUT,DN220QU,53.2569488,-0.9248484
415,BA,Req2577903,Additional Delivery Request,Closed,27/09/2018,27/09/2018,0,0,6-Closed,DAMIAN BOWBRICK,415-FLEET,GU513BL,51.2818682,-0.8410077
424,HW,Req2577894,Additional Delivery Request,Closed,27/09/2018,27/09/2018,0,0,6-Closed,KATY OBRIEN,424-HARRINGAY,N41DR,51.57716816,-0.098014346
464,CV,Req2577906,Additional Delivery Request,Closed,27/09/2018,27/09/2018,0,0,6-Closed,JAMES LYON,464-BARNSLEY 2 D/T,S702LA,53.56062639,-1.475199616
475,CV,Req2577907,Additional Delivery Request,Closed,27/09/2018,27/09/2018,0,0,6-Closed,JAMES LYON,475-MEADOWHALL 2 D/T,S92YZ,53.40518276,-1.412388768
630,HH,Req2577918,Additional Delivery Request,Closed,27/09/2018,27/09/2018,0,0,6-Closed,ALAN GIBSON,630-CHESHIRE OAKS (ELLESMERE PORT),CH659JJ,53.2636143,-2.8812514
669,HW,Req2577921,Additional Delivery Request,Closed,27/09/2018,27/09/2018,0,0,6-Closed,MARK PHIPPS,669-BECCLES,NR340HF,52.474612,1.546448872
674,HW,Req2577917,Additional Delivery Request,Closed,27/09/2018,27/09/2018,0,0,6-Closed,ALAN GIBSON,674-KINGSMILL (SUTTON-IN-ASHFIELD),NG174JP,53.1316599,-1.2349029
676,HW,Req2577922,Additional Delivery Request,Closed,27/09/2018,27/09/2018,0,0,6-Closed,GREG MCLACHLAN,676-ANGEL ROW (NOTTINGHAM),NG16HL,52.95354329,-1.152550675
715,HH,Req2577902,Additional Delivery Request,Closed,27/09/2018,27/09/2018,0,0,6-Closed,FRANCESCA PARKER,715-ALTRINCHAM RETAIL PARK,WA145GR,53.39981339,-2.355770471
776,BA,Req2577911,Additional Delivery Request,Closed,27/09/2018,27/09/2018,0,0,6-Closed,JASON MAVRODARIS,776-PLYMOUTH: NEW GEORGE STREET 2,PL11RX,50.37156679,-4.145611942
836,HW,Req2577895,Additional Delivery Request,Closed,27/09/2018,27/09/2018,0,0,6-Closed,SARAH COTTOY,836-ROCHESTER,ME22SS,52.4975828,-1.8969054
891,CV,Req2577915,Additional Delivery Request,Closed,27/09/2018,27/09/2018,0,0,6-Closed,ALAN GIBSON,891-BILSTON,WV140EZ,52.5639345,-2.081403469
892,HW,Req2577916,Additional Delivery Request,Closed,27/09/2018,27/09/2018,0,0,6-Closed,SARAH COTTOY,892-NORTH CHEAM,SM39AG,51.37350164,-0.225707683
1005,HW,Req2577913,Additional Delivery Request,Closed,27/09/2018,27/09/2018,0,0,6-Closed,SARAH COTTOY,1005-SOUTH HARROW,HA20AG,51.5721672,-0.3529652
1063,HW,Req2577898,Additional Delivery Request,Closed,27/09/2018,27/09/2018,0,0,6-Closed,KATIE KIRK,1063-SHAFTESBUR AVENUE(LONDON),W1D 7EQ,51.51109278,-0.133942707
1067,HW,Req2577893,Additional Delivery Request,Closed,27/09/2018,27/09/2018,0,0,6-Closed,KATY OBRIEN,1067-WOOD GREEN SPOUTERS CORNER,N226EJ,51.59697152,-0.108709111
1173,HH,Req2577892,Additional Delivery Request,Closed,27/09/2018,27/09/2018,0,0,6-Closed,ALISON RALPH,1173-LLANDUDNO JUNCTION,LL319XX,53.28227043,-3.808416173
1347,BA,Req2577904,Additional Delivery Request,Closed,27/09/2018,27/09/2018,0,0,6-Closed,JASON MAVRODARIS,1347-PORTISHEAD,BS207BY,51.4837863,-2.7646807
1450,HH,Req2577900,Additional Delivery Request,Closed,27/09/2018,27/09/2018,0,0,6-Closed,FRANCESCA PARKER,1450-STRETFORD,M32 8NB,53.4436463,-2.309315
990,HH,Req2577919,Additional Delivery Request,Closed,27/09/2018,27/09/2018,0,0,6-Closed,CALLUM MUNRO,990-PETERHEAD,AB423JL,57.4872794,-1.8039496
31,HW,Req2577925,Additional Delivery Request,Closed,27/09/2018,27/09/2018,0,0,6-Closed,MARK PHIPPS,31-SOUTHGATE,N145BP,51.6326478,-0.1296084
48,HW,Req2577941,Additional Delivery Request,Closed,27/09/2018,27/09/2018,0,0,6-Closed,SARAH COTTOY,48-CLAPHAM,SW111PW,51.4627826,-0.167931
63,CV,Req2577942,Additional Delivery Request,Closed,27/09/2018,27/09/2018,0,0,6-Closed,ALAN GIBSON,63-KINGS PARADE,B47SY,52.4795815,-1.8929719
189,BA,Req2577927,Additional Delivery Request,Closed,27/09/2018,27/09/2018,0,0,6-Closed,DAMIAN BOWBRICK,189-WOKING,GU215AB,51.319509,-0.5568122
267,HH,Req2577944,Additional Delivery Request,Closed,27/09/2018,27/09/2018,0.000694444,0,6-Closed,CALLUM MUNRO,267-INVERNESS,IV11JQ,57.47761855,-4.22409162
324,CV,Req2577935,Additional Delivery Request,Closed,27/09/2018,27/09/2018,0,0,6-Closed,ALAN GIBSON,324-COVENTRY (2) - CROSS CHEAPING,CV11HF,52.4092696,-1.5107646
327,HH,Req2577936,Additional Delivery Request,Closed,27/09/2018,27/09/2018,0,0,6-Closed,FRANCESCA PARKER,327-ARDWICK D/T,M124AB,53.46726227,-2.217855194
402,HH,Req2577943,Additional Delivery Request,Closed,27/09/2018,27/09/2018,0.000694444,0,6-Closed,CALLUM MUNRO,402-POLLOCKSHAW D/T,G412PF,55.8396475,-4.2670347
452,CV,Req2577948,Additional Delivery Request,Closed,27/09/2018,27/09/2018,0.000694444,0,6-Closed,ALAN GIBSON,452-COVENTRY '3' DRIVE THRU,CV58BW,52.411292,-1.5283691
541,BA,Req2577928,Additional Delivery Request,Closed,27/09/2018,27/09/2018,0,0,6-Closed,DAMIAN BOWBRICK,541-ARUNDEL DRIVE THRU,BN177QQ,50.8399581,-0.5419
542,HH,Req2577937,Additional Delivery Request,Closed,27/09/2018,27/09/2018,0,0,6-Closed,CALLUM MUNRO,542-D/T STAMFORDHAM ROAD,NE52QZ,54.99497998,-1.682643375
630,HH,Req2577930,Additional Delivery Request,Closed,27/09/2018,27/09/2018,0,0,6-Closed,ALAN GIBSON,630-CHESHIRE OAKS (ELLESMERE PORT),CH659JJ,53.2636143,-2.8812514
662,BA,Req2577923,Additional Delivery Request,Closed,27/09/2018,27/09/2018,0,0,6-Closed,JASON MAVRODARIS,662-BEDMINSTER,BS34EG,51.4386774,-2.6006335
670,HH,Req2577931,Additional Delivery Request,Closed,27/09/2018,27/09/2018,0,0,6-Closed,CALLUM MUNRO,670-FORT WILLIAM,PH336AN,56.82129124,-5.104918562
683,HH,Req2577924,Additional Delivery Request,Closed,27/09/2018,27/09/2018,0,0,6-Closed,FRANCESCA PARKER,683-SNIPE RETAIL PARK,OL70DN,53.47869444,-2.124735872
752,HH,Req2577926,Additional Delivery Request,Closed,27/09/2018,27/09/2018,0,0,6-Closed,CALLUM MUNRO,752-KIRKCALDY 2 CHAPEL PARK,KY26QL,56.1353803,-3.198179139
807,HH,Req2577932,Additional Delivery Request,Closed,27/09/2018,27/09/2018,0,0,6-Closed,CALLUM MUNRO,807-GLASGOW CROW ROAD,G117RY,55.8722783,-4.3120973
835,CV,Req2577934,Additional Delivery Request,Closed,27/09/2018,27/09/2018,0,0,6-Closed,JAMES LYON,835-ROTHERHAM (BAWTRY ROAD ),S661YY,53.42195376,-1.254185927
857,HW,Req2577939,Additional Delivery Request,Closed,27/09/2018,27/09/2018,0,0,6-Closed,MARK PHIPPS,857-BASILDON LEISURE,SS143WE,51.58553173,0.487973079
857,HW,Req2577940,Additional Delivery Request,Closed,27/09/2018,27/09/2018,0,0,6-Closed,MARK PHIPPS,857-BASILDON LEISURE,SS143WE,51.58553173,0.487973079
868,HW,Req2577938,Additional Delivery Request,Closed,27/09/2018,27/09/2018,0,0,6-Closed,MARK PHIPPS,868-IPSWICH CARDINAL LEISURE PARK,IP11UZ,52.05397075,1.152176504
887,BA,Req2577929,Additional Delivery Request,Closed,27/09/2018,27/09/2018,0,0,6-Closed,KATY OBRIEN,887-TUNBRIDGE WELLS - CROWN HOUSE,TN23NY,51.15600662,0.288211725
909,BA,Req2577946,Additional Delivery Request,Closed,27/09/2018,27/09/2018,0.000694444,0,6-Closed,JASON MAVRODARIS,909-NEWPORT CARDIFF ROAD,NP203BA,51.57244478,-3.010386209
1070,BA,Req2577945,Additional Delivery Request,Closed,27/09/2018,27/09/2018,0.000694444,0,6-Closed,KATY OBRIEN,1070-CANTERBURY,CT12SS,51.2776621,1.0815877
1292,BA,Req2577933,Additional Delivery Request,Closed,27/09/2018,27/09/2018,0,0,6-Closed,DAMIAN BOWBRICK,1292-CHICHESTER 3,PO198EL,50.83001673,-0.785081948
7020,DB,Req2577949,Additional Delivery Request,Closed,27/09/2018,27/09/2018,0.000694444,0,6-Closed,TRACEY TALBOT,7020-BLACKROCK,Dublin,,
7070,DB,Req2577947,Additional Delivery Request,Closed,27/09/2018,27/09/2018,0.000694444,0,6-Closed,TRACEY TALBOT,7070-ASHBOURNE,Meath,,
1486,HH,Req2578794,Additional Delivery Request,Closed,27/09/2018,28/09/2018,1.086805556,0,6-Closed,JAMES LYON,1486-ANLABY,HU3 6UB,53.7436555,-0.3873095
800,HW,Req2579772,Additional Delivery Request,Closed,27/09/2018,28/09/2018,0.942361111,0,6-Closed,KATY OBRIEN,800-COUNTY HALL,SE17PB,51.5028188,-0.119252376
1372,HH,Req2593441,Additional Delivery Request,Closed,03/10/2018,15/10/2018,11.96111111,0,6-Closed,ALISON RALPH,1372-CHESTER SRVS ROADCHEF,CH24QZ,53.2682334,-2.8025083
624,HW,Req2607192,Additional Delivery Request,Closed,09/10/2018,10/10/2018,0.918055556,0,6-Closed,KATY OBRIEN,624-STROOD,ME22AD,51.39520564,0.493012465
1065,HH,Req2609372,Additional Delivery Request,Open,10/10/2018,21/02/2019,133.8770431,,5-Delivery Change,CALLUM MUNRO,1065-DUMFRIES,DG20DY,55.0784964,-3.6285867
499,HW,Req2610117,Additional Delivery Request,Closed,10/10/2018,18/10/2018,7.743055556,0,6-Closed,KATY OBRIEN,499-BOREHAMWOOD,WD61TE,51.65887153,-0.270637566
353,HH,Req2610214,Additional Delivery Request,Closed,10/10/2018,17/10/2018,6.978472222,0,6-Closed,FRANCESCA PARKER,353-SALFORD D/T,M54BN,53.48487217,-2.277757535
697,BA,Req2653421,Additional Delivery Request,Open,29/10/2018,21/02/2019,115.0020431,,4-Awaiting Deployment,DAMIAN BOWBRICK,697-SOUTHAMPTON ESPLANADE,SO151BA,50.90420823,-1.41005269
89,BA,Req2654531,Additional Delivery Request,Open,29/10/2018,21/02/2019,114.8700986,,3-Awaiting Approval,DAMIAN BOWBRICK,89-PORTSMOUTH - COMMERCIAL ROAD,PO14BJ,50.8027351,-1.0882034
461,HW,Req2656928,Additional Delivery Request,Closed,30/10/2018,01/11/2018,1.940277778,0,6-Closed,ALAN GIBSON,461-ABBEY LANE D/T,LE42AB,52.6596928,-1.1332718
449,BA,Req2673668,Additional Delivery Request,Open,07/11/2018,21/02/2019,105.9360708,,3-Awaiting Approval,DAMIAN BOWBRICK,449-HEDGE END SOUTHAMPTON,SO302UH,50.92249109,-1.311653517
1339,BA,Req2684746,Additional Delivery Request,Open,12/11/2018,21/02/2019,100.7923208,,3-Awaiting Approval,DAMIAN BOWBRICK,1339-CALCOT SAVACENTRE (2),RG317SA,51.4429764,-1.062075424
449,BA,Req2689434,Additional Delivery Request,Closed,14/11/2018,15/11/2018,1.019444444,0,6-Closed,DAMIAN BOWBRICK,449-HEDGE END SOUTHAMPTON,SO302UH,50.92249109,-1.311653517
545,HW,Req2696859,Additional Delivery Request,Closed,18/11/2018,04/02/2019,78.51666667,22.52,6-Closed,SARAH COTTOY,545-STEVENAGE (2) DRIVE THRU,SG11TL,51.8944696,-0.1991416
543,HW,Req2728075,Additional Delivery Request,Closed,29/11/2018,06/12/2018,6.761805556,0,6-Closed,MARK PHIPPS,543-WYBOSTON (AJ'S),MK443AA,52.1945688,-0.2979427
501,CV,Req2737551,Additional Delivery Request,Open,03/12/2018,21/02/2019,79.59162639,,3-Awaiting Approval,ALAN GIBSON,501-TRENT VALE D/T,ST46PD,52.99555419,-2.208468438
435,CV,Req2746225,Additional Delivery Request,Open,07/12/2018,21/02/2019,75.96732083,,2-Awaiting CAD work,ALAN GIBSON,435-FESTIVAL PARK D/T,ST15SJ,53.02892274,-2.197491447
758,HH,Req2813321,Additional Delivery Request,Closed,08/01/2019,09/01/2019,0.897222222,0,6-Closed,ALISON RALPH,758-LIVERPOOL ST JOHNS CENTRE,L11LT,53.40703974,-2.980547959
758,HH,Req2821962,Additional Delivery Request,Open,13/01/2019,21/02/2019,38.74232083,,3-Awaiting Approval,ALISON RALPH,758-LIVERPOOL ST JOHNS CENTRE,L11LT,53.40703974,-2.980547959
190,HW,Req2853566,Additional Delivery Request,Open,29/01/2019,21/02/2019,22.65829306,,3-Awaiting Approval,KATIE KIRK,190-BETHNAL GREEN,E20DJ,51.5267785,-0.0597634
719,CV,Req2860829,Additional Delivery Request,Open,01/02/2019,21/02/2019,19.8277375,,2-Awaiting CAD work,GREG MCLACHLAN,719-SHEFFIELD FARM ROAD,S22TP,53.37350658,-1.461989813
418,CV,Req2867233,Additional Delivery Request,Closed,04/02/2019,07/02/2019,2.952777778,0,6-Closed,GREG MCLACHLAN,418-HILLSBOROUGH D/T,S62GB,53.40176077,-1.493459447
827,CV,Req2885386,Additional Delivery Request,Open,12/02/2019,21/02/2019,8.617320833,,3-Awaiting Approval,ALAN GIBSON,827-COVENTRY (WEST ORCHARDS),CV11QX,52.4092394,-1.5121615
241,HW,Req2579285,BOH Re-Image,Closed,27/09/2018,25/10/2018,28.07430556,0,6-Closed,MARK PHIPPS,241-NORWICH (2)  - DRIVE THRU,NR65JB,52.6545119,1.269207
634,HW,Req2579291,BOH Re-Image,Closed,27/09/2018,01/10/2018,4.010416667,0,6-Closed,KATIE KIRK,634-BECKTON,E66LG,51.5210231,0.0706762
7124,DB,Req2579335,BOH Re-Image,Closed,27/09/2018,02/10/2018,4.963194444,0,6-Closed,TRACEY TALBOT,7124-CARLOW 2 DT,Carlow,,
881,CV,Req2588178,BOH Re-Image,Closed,01/10/2018,12/02/2019,134.2493056,78.25,6-Closed,JAMES LYON,881-CRYSTAL PEAKS 2,S207JJ,53.34516463,-1.356525818
1100,BA,Req2595409,BOH Re-Image,Open,04/10/2018,21/02/2019,139.8548208,,4-Awaiting Deployment,DAMIAN BOWBRICK,1100-WEST QUAY (SOUTHAMPTON),SO151QF,50.90358224,-1.407187861
152,CV,Req2595636,BOH Re-Image,Closed,04/10/2018,04/10/2018,0.096527778,0,6-Closed,JAMES LYON,152-GRIMSBY,DN311DG,53.5650999,-0.0864856
804,BA,Req2595983,BOH Re-Image,Open,04/10/2018,21/02/2019,139.7180153,,1-Visit Required,DAMIAN BOWBRICK,804-CARDIFF BAY RETAIL PARK D/T,CF110JR,51.4581803,-3.1858801
550,BA,Req2596001,BOH Re-Image,Open,04/10/2018,21/02/2019,139.7110708,,3-Awaiting Approval,DAMIAN BOWBRICK,550-FARNBOROUGH (DRIVE-THRU),GU148BL,51.3019172,-0.7455263
1433,BA,Req2597631,BOH Re-Image,Closed,05/10/2018,24/01/2019,111.2423611,55.24,6-Closed,DAMIAN BOWBRICK,1433-FARNBOROUGH 2,GU14 7JT,51.2921773,-0.7538231
849,HW,Req2604548,BOH Re-Image,Open,08/10/2018,21/02/2019,135.7062097,,3-Awaiting Approval,MARK PHIPPS,849-NORWICH - LONGWATER,NR50TL,52.65271285,1.186376928
945,HW,Req2605025,BOH Re-Image,Open,08/10/2018,21/02/2019,135.4312097,,3-Awaiting Approval,KATY OBRIEN,945-LONDON COLNEY,AL21BX,51.7167805,-0.2784905
1217,HW,Req2605912,BOH Re-Image,Closed,09/10/2018,09/10/2018,0.185416667,0,6-Closed,MARK PHIPPS,1217-SOUTHCHURCH,SS24BN,51.55224544,0.732927719
874,HH,Req2614257,BOH Re-Image,Closed,12/10/2018,18/01/2019,98.09236111,42.09,6-Closed,ALISON RALPH,874-LIVERPOOL (SWITCH ISLAND),L306TQ,53.48541268,-2.964104543
464,CV,Req2624391,BOH Re-Image,Closed,16/10/2018,17/10/2018,0.970833333,0,6-Closed,JAMES LYON,464-BARNSLEY 2 D/T,S702LA,53.56062639,-1.475199616
464,CV,Req2624506,BOH Re-Image,Closed,16/10/2018,16/10/2018,0.253472222,0,6-Closed,JAMES LYON,464-BARNSLEY 2 D/T,S702LA,53.56062639,-1.475199616
1034,HH,Req2625337,BOH Re-Image,Open,16/10/2018,21/02/2019,127.8145431,,4-Awaiting Deployment,ALISON RALPH,1034-PRESCOT,L345QX,53.42680623,-2.80103813
1021,CV,Req2625588,BOH Re-Image,Closed,16/10/2018,17/10/2018,0.833333333,0,6-Closed,ALAN GIBSON,1021-TUNSTALL,ST65PH,53.07174198,-2.215791774
822,BA,Req2626307,BOH Re-Image,Closed,16/10/2018,19/10/2018,2.577777778,0,6-Closed,DAMIAN BOWBRICK,822-CHICHESTER 2,PO19 4WT,50.84251712,-0.756080711
464,CV,Req2626663,BOH Re-Image,Closed,17/10/2018,17/10/2018,0.097222222,0,6-Closed,JAMES LYON,464-BARNSLEY 2 D/T,S702LA,53.56062639,-1.475199616
464,CV,Req2626717,BOH Re-Image,Closed,17/10/2018,17/10/2018,0.063194444,0,6-Closed,JAMES LYON,464-BARNSLEY 2 D/T,S702LA,53.56062639,-1.475199616
464,CV,Req2626975,BOH Re-Image,Closed,17/10/2018,17/10/2018,0.020138889,0,6-Closed,JAMES LYON,464-BARNSLEY 2 D/T,S702LA,53.56062639,-1.475199616
70,CV,Req2627920,BOH Re-Image,Open,17/10/2018,21/02/2019,126.8249597,,3-Awaiting Approval,ALAN GIBSON,70-WALSALL,WS11NG,52.5851697,-1.9833082
1173,HH,Req2627919,BOH Re-Image,Closed,17/10/2018,26/11/2018,39.94375,0,6-Closed,ALISON RALPH,1173-LLANDUDNO JUNCTION,LL319XX,53.28227043,-3.808416173
529,HW,Req2633054,BOH Re-Image,Closed,19/10/2018,25/10/2018,5.7125,0,6-Closed,KATY OBRIEN,529-SWANLEY,DA145JA,51.409654,0.144284
870,CV,Req2634708,BOH Re-Image,Closed,20/10/2018,22/10/2018,1.574305556,0,6-Closed,ALAN GIBSON,870-KINGSWINFORD D/T,DY68WT,52.5000738,-2.151934
856,HW,Req2636265,BOH Re-Image,Closed,21/10/2018,22/10/2018,0.90625,0,6-Closed,SARAH COTTOY,856-FRIERN LEISURE,N113PW,51.61178819,-0.142887153
974,HH,Req2637226,BOH Re-Image,Open,22/10/2018,21/02/2019,122.0360708,,2-Awaiting CAD work,JAMES LYON,974-SUNDERLAND RYHOPE ROAD,SR20SP,54.87615618,-1.359357988
571,HH,Req2637767,BOH Re-Image,Closed,22/10/2018,08/11/2018,16.93055556,0,6-Closed,ALISON RALPH,571-LYMM D/T,WA130SP,53.35902623,-2.504437768
1540,HW,Req2638529,BOH Re-Image,Closed,22/10/2018,04/01/2019,73.92152778,17.92,6-Closed,GREG MCLACHLAN,1540-NOTTINGHAM VICTORIA CENTRE,NG1 3QN,,
1528,CV,Req2639228,BOH Re-Image,Closed,22/10/2018,23/10/2018,0.595833333,0,6-Closed,GREG MCLACHLAN,1528-CLAY CROSS,S459AG,,
855,HW,Req2640706,BOH Re-Image,Closed,23/10/2018,23/10/2018,0.007638889,0,6-Closed,MARK PHIPPS,855-RAYLEIGH,SS67UP,51.5765209,0.601953415
1253,HW,Req2644187,BOH Re-Image,Open,24/10/2018,21/02/2019,119.5763486,,3-Awaiting Approval,MARK PHIPPS,1253-APSLEY,HP39SE,51.7384463,-0.4712497
1272,HH,Req2645700,BOH Re-Image,Closed,25/10/2018,25/10/2018,0.027777778,0,6-Closed,JAMES LYON,1272-BRIGHOUSE,HD64BT,53.7179406,-1.7783356
528,HH,Req2646184,BOH Re-Image,Closed,25/10/2018,02/11/2018,7.9375,0,6-Closed,ALISON RALPH,528-BLACKBURN 2 D/T,BB24LQ,53.7286117,-2.4920291
1236,HH,Req2646313,BOH Re-Image,Open,25/10/2018,21/02/2019,118.7409319,,3-Awaiting Approval,ALISON RALPH,1236-ACCRINGTON (2),BB51PY,53.7545566,-2.3765836
495,BA,Req2657001,BOH Re-Image,Closed,30/10/2018,30/10/2018,0.131944444,0,6-Closed,JASON MAVRODARIS,495-NEWPORT (2),NP194QR,51.57473354,-2.943942411
525,HW,Req2658369,BOH Re-Image,Open,31/10/2018,21/02/2019,113.0374597,,3-Awaiting Approval,SARAH COTTOY,525-FELTHAM,TW134AE,51.44716385,-0.409604605
1082,BA,Req2659661,BOH Re-Image,Open,31/10/2018,21/02/2019,112.7631542,,3-Awaiting Approval,DAMIAN BOWBRICK,1082-SWANSEA,SA18LD,51.62015765,-3.912729978
522,BA,Req2659676,BOH Re-Image,Open,31/10/2018,21/02/2019,112.7541264,,3-Awaiting Approval,DAMIAN BOWBRICK,522-CARDIFF NORTH (ASDA) DRIVE THRU,CF147HY,51.5240823,-3.24401
1023,CV,Req2670192,BOH Re-Image,Closed,05/11/2018,11/02/2019,98.12708333,42.13,6-Closed,ALAN GIBSON,1023-CHIRK,LL145AZ,52.95035378,-3.043339725
1398,HW,Req2684926,BOH Re-Image,Closed,12/11/2018,16/11/2018,3.843055556,0,6-Closed,GREG MCLACHLAN,1398-MARKHAM VALE,S44 5HB,53.2483009,-1.340145153
892,HW,Req2698069,BOH Re-Image,Closed,18/11/2018,19/11/2018,0.927083333,0,6-Closed,SARAH COTTOY,892-NORTH CHEAM,SM39AG,51.37350164,-0.225707683
1370,CV,Req2723399,BOH Re-Image,Open,27/11/2018,21/02/2019,85.59301528,,2-Awaiting CAD work,GREG MCLACHLAN,1370-WATFORD GAP MSA,NN67UZ,52.30629257,-1.123174356
259,HH,Req2755552,BOH Re-Image,Open,12/12/2018,21/02/2019,70.87426528,,4-Awaiting Deployment,JAMES LYON,259-MIDDLESBOROUGH,TS15DD,54.57422408,-1.23765498
980,BA,Req2774287,BOH Re-Image,Closed,20/12/2018,27/12/2018,7.015972222,0,6-Closed,DAMIAN BOWBRICK,980-READING ORACLE CENTRE,RG12AG,51.45364402,-0.971316617
28,HW,Req2787630,BOH Re-Image,Open,28/12/2018,21/02/2019,54.9152375,,2-Awaiting CAD work,KATIE KIRK,28-OXFORD STREET (1) NOS. 8-10,W1D1AW,51.5167048,-0.131162221
1216,BA,Req2787792,BOH Re-Image,Closed,28/12/2018,28/12/2018,0.009027778,0,6-Closed,JASON MAVRODARIS,1216-TIVERTON,EX166SR,50.911078,-3.4652253
76,HH,Req2797158,BOH Re-Image,Open,02/01/2019,21/02/2019,49.93537639,,2-Awaiting CAD work,FRANCESCA PARKER,76-STOCKPORT 1,SK11PN,53.41195033,-2.158780203
415,BA,Req2798455,BOH Re-Image,Open,02/01/2019,21/02/2019,49.82704306,,2-Awaiting CAD work,DAMIAN BOWBRICK,415-FLEET,GU513BL,51.2818682,-0.8410077
836,HW,Req2805359,BOH Re-Image,Open,04/01/2019,21/02/2019,47.68745972,,1-Visit Required,SARAH COTTOY,836-ROCHESTER,ME22SS,52.4975828,-1.8969054
1181,HW,Req2815256,BOH Re-Image,Closed,09/01/2019,10/01/2019,0.708333333,0,6-Closed,SARAH COTTOY,1181-POTTERS BAR,EN61AJ,51.6967691,-0.1914452
1192,HH,Req2815577,BOH Re-Image,Closed,09/01/2019,10/01/2019,0.579861111,0,6-Closed,JAMES LYON,1192-MIDDLESBOROUGH LEISURE PARK,TS42AG,54.57393023,-1.223939286
1100,BA,Req2816738,BOH Re-Image,Closed,10/01/2019,10/01/2019,0.155555556,0,6-Closed,DAMIAN BOWBRICK,1100-WEST QUAY (SOUTHAMPTON),SO151QF,50.90358224,-1.407187861
48,HW,Req2817131,BOH Re-Image,Open,10/01/2019,21/02/2019,41.70759861,,4-Awaiting Deployment,SARAH COTTOY,48-CLAPHAM,SW111PW,51.4627826,-0.167931
873,HW,Req2819406,BOH Re-Image,Closed,11/01/2019,14/01/2019,2.775694444,0,6-Closed,MARK PHIPPS,873-BRAMPTON HUT,PE284NQ,52.32945787,-0.254407297
1451,CV,Req2820785,BOH Re-Image,Closed,12/01/2019,14/01/2019,1.768055556,0,6-Closed,JAMES LYON,1451-ROTHERHAM,S60 1SG,53.4417318,-1.3482635
888,BA,Req2823851,BOH Re-Image,Open,14/01/2019,21/02/2019,37.70412639,,3-Awaiting Approval,KATY OBRIEN,888-BRIGHTON - CHURCHILL SQ,BN12TE,50.8224199,-0.1458012
1327,HH,Req2825831,BOH Re-Image,Closed,15/01/2019,18/01/2019,2.798611111,0,6-Closed,CALLUM MUNRO,1327-DUNFERMLINE - ASDA,KY114LP,56.07808356,-3.4269355
11,HW,Req2831820,BOH Re-Image,Open,18/01/2019,21/02/2019,33.82912639,,1-Visit Required,SARAH COTTOY,11-SHEPHERDS BUSH,W128LR,51.5048296,-0.2209571
494,HW,Req2844118,BOH Re-Image,Open,24/01/2019,21/02/2019,27.7277375,,4-Awaiting Deployment,KATY OBRIEN,494-ERITH,DA81RN,51.4784149,0.1808043
1385,HW,Req2844143,BOH Re-Image,Open,24/01/2019,21/02/2019,27.71801528,,2-Awaiting CAD work,KATY OBRIEN,1385-BROOMWOOD D/T,BR5 3AE,51.4007941,0.1126998
165,HW,Req2844162,BOH Re-Image,Open,24/01/2019,21/02/2019,27.71176528,,2-Awaiting CAD work,KATY OBRIEN,165-SIDCUP,DA146DS,51.426121,0.1020434
1077,CV,Req2852405,BOH Re-Image,Closed,29/01/2019,30/01/2019,1.218055556,0,6-Closed,ALAN GIBSON,1077-NEWTOWN(POWYS),SY161DG,52.51362616,-3.310355102
1077,CV,Req2852975,BOH Re-Image,Closed,29/01/2019,05/02/2019,7.08125,0,6-Closed,ALAN GIBSON,1077-NEWTOWN(POWYS),SY161DG,52.51362616,-3.310355102
1077,CV,Req2854773,BOH Re-Image,Closed,30/01/2019,05/02/2019,6.323611111,0,6-Closed,ALAN GIBSON,1077-NEWTOWN(POWYS),SY161DG,52.51362616,-3.310355102
1077,CV,Req2856373,BOH Re-Image,Closed,30/01/2019,05/02/2019,6.038888889,0,6-Closed,ALAN GIBSON,1077-NEWTOWN(POWYS),SY161DG,52.51362616,-3.310355102
963,HW,Req2856403,BOH Re-Image,Closed,30/01/2019,06/02/2019,6.9,0,6-Closed,ALAN GIBSON,963-NOTTINGHAM-ARNOLD,NG56BN,53.00034177,-1.13250201
1418,BA,Req2859011,BOH Re-Image,Closed,31/01/2019,06/02/2019,5.93125,0,6-Closed,JASON MAVRODARIS,1418-AMESBURY,SP47SQ,51.17702858,-1.757675645
902,BA,Req2860294,BOH Re-Image,Closed,01/02/2019,06/02/2019,5.263194444,0,6-Closed,DAMIAN BOWBRICK,902-ABERDARE,CF448DL,51.7161171,-3.4482126
1289,HH,Req2569817,Capacity Review,Closed,24/09/2018,24/09/2018,0.045833333,0,6-Closed,ALISON RALPH,1289-PRESTON FISHERGATE,PR18HJ,53.75694271,-2.705748025
1355,HW,Req2569877,Capacity Review,Closed,24/09/2018,02/01/2019,100.3,44.3,6-Closed,MARK PHIPPS,1355-STANSTED,CM24 1AA,51.8764747,0.2468266
1011,HW,Req2571393,Capacity Review,Closed,24/09/2018,26/09/2018,1.936111111,0,6-Closed,SARAH COTTOY,1011-VICTORIA STATION,SW1V1JT,51.49497252,-0.144354161
1074,BA,Req2575638,Capacity Review,Closed,26/09/2018,20/12/2018,84.94305556,28.94,6-Closed,JASON MAVRODARIS,1074-ST.AUSTELL,PL255BU,50.33290654,-4.792555167
247,HH,Req2575766,Capacity Review,Closed,26/09/2018,26/09/2018,0,0,6-Closed,CALLUM MUNRO,247-DUNDEE 1,DD11SG,56.4610456,-2.9704446
428,DB,Req2575763,Capacity Review,Closed,26/09/2018,26/09/2018,0,0,6-Closed,TRACEY TALBOT,428-DONEGALL PLACE,BT1 5BA,,
733,HH,Req2575765,Capacity Review,Closed,26/09/2018,26/09/2018,0,0,6-Closed,CALLUM MUNRO,733-WISHAW,ML27QJ,55.77601105,-3.931117146
853,CV,Req2575762,Capacity Review,Closed,26/09/2018,26/09/2018,0,0,6-Closed,ALAN GIBSON,853-ABERSTWYTH,SY233TL,52.40588897,-4.068968706
866,HH,Req2575760,Capacity Review,Closed,26/09/2018,26/09/2018,0,0,6-Closed,FRANCESCA PARKER,866-LEEDS OAKWOOD,LS82RB,53.82091402,-1.497716987
1033,HH,Req2575764,Capacity Review,Closed,26/09/2018,26/09/2018,0,0,6-Closed,JAMES LYON,1033-OLDHAM(HUDDERSFIELD ROAD),OL42BY,53.54550784,-2.092124166
1034,HH,Req2575767,Capacity Review,Closed,26/09/2018,26/09/2018,0,0,6-Closed,ALISON RALPH,1034-PRESCOT,L345QX,53.42680623,-2.80103813
1356,BA,Req2575768,Capacity Review,Closed,26/09/2018,26/09/2018,0,0,6-Closed,JASON MAVRODARIS,1356-CRIBBS CAUSEWAY,BS345UR,51.5251586,-2.5953568
1382,CV,Req2575759,Capacity Review,Closed,26/09/2018,26/09/2018,0,0,6-Closed,GREG MCLACHLAN,1382-SANDBACH,CW11 2FZ,53.1393811,-2.3375137
7112,DB,Req2575761,Capacity Review,Closed,26/09/2018,26/09/2018,0,0,6-Closed,TRACEY TALBOT,7112-NAAS DT,Kildare,,
16,HW,Req2575812,Capacity Review,Closed,26/09/2018,26/09/2018,0,0,6-Closed,MARK PHIPPS,16-SOUTHEND,SS11JF,51.5366783,0.7139679
221,CV,Req2575815,Capacity Review,Closed,26/09/2018,26/09/2018,0,0,6-Closed,ALAN GIBSON,221-MERRYHILL 1 D/T (DUDLEY),DY51SY,52.4812212,-2.1124072
322,HH,Req2575813,Capacity Review,Closed,26/09/2018,26/09/2018,0,0,6-Closed,ALISON RALPH,322-PRESTON 2 D/T,PR22TX,53.76216282,-2.741801797
387,HW,Req2575818,Capacity Review,Closed,26/09/2018,26/09/2018,0,0,6-Closed,MARK PHIPPS,387-BASILDON (2) DRIVE THRU,SS143HZ,51.5907748,0.4795391
482,HH,Req2575814,Capacity Review,Closed,26/09/2018,26/09/2018,0,0,6-Closed,ALISON RALPH,482-CAPITOL CNTR D/T,PR54AW,53.74881752,-2.677694175
493,CV,Req2575810,Capacity Review,Closed,26/09/2018,26/09/2018,0,0,6-Closed,ALAN GIBSON,493-KITTS GREEN D/T,B330XH,52.478322,-1.7811495
569,HH,Req2575806,Capacity Review,Closed,26/09/2018,26/09/2018,0,0,6-Closed,FRANCESCA PARKER,569-WAKEFIELD 2 D/T,WF29BY,53.67835837,-1.525437379
633,HH,Req2575801,Capacity Review,Closed,26/09/2018,26/09/2018,0,0,6-Closed,JAMES LYON,633-FAMILY RESTURANTS LTD PONTEFRACT,WF84PR,53.69726481,-1.319303357
714,HH,Req2575799,Capacity Review,Closed,26/09/2018,26/09/2018,0,0,6-Closed,ALISON RALPH,714-HUYTON,L365RT,53.41019553,-2.838907053
739,BA,Req2575807,Capacity Review,Closed,26/09/2018,26/09/2018,0,0,6-Closed,JASON MAVRODARIS,739-SWAYTHLING : BLACK CAT,SO162JE,50.93788501,-1.380522543
768,BA,Req2575803,Capacity Review,Closed,26/09/2018,26/09/2018,0,0,6-Closed,DAMIAN BOWBRICK,768-NEWBURY RETAIL PARK,RG147HU,51.38505695,-1.318031645
795,DB,Req2575808,Capacity Review,Closed,26/09/2018,26/09/2018,0,0,6-Closed,TRACEY TALBOT,795-PORTADOWN,BT62 3TN,,
807,HH,Req2575804,Capacity Review,Closed,26/09/2018,26/09/2018,0,0,6-Closed,CALLUM MUNRO,807-GLASGOW CROW ROAD,G117RY,55.8722783,-4.3120973
963,HW,Req2575800,Capacity Review,Closed,26/09/2018,26/09/2018,0,0,6-Closed,ALAN GIBSON,963-NOTTINGHAM-ARNOLD,NG56BN,53.00034177,-1.13250201
1062,HH,Req2575816,Capacity Review,Closed,26/09/2018,26/09/2018,0,0,6-Closed,FRANCESCA PARKER,1062-BAGULEY,M239AA,53.40029514,-2.290756896
1432,DB,Req2575817,Capacity Review,Closed,26/09/2018,26/09/2018,0,0,6-Closed,TRACEY TALBOT,1432-BOUCHER ROAD BELFAST,BT126JA,,
1527,HH,Req2575811,Capacity Review,Closed,26/09/2018,26/09/2018,0,0,6-Closed,JAMES LYON,1527-BEVERLEY,HU178XE,,
1528,CV,Req2575805,Capacity Review,Closed,26/09/2018,26/09/2018,0,0,6-Closed,GREG MCLACHLAN,1528-CLAY CROSS,S459AG,,
7025,DB,Req2575819,Capacity Review,Closed,26/09/2018,26/09/2018,0,0,6-Closed,TRACEY TALBOT,7025-CLONDALKIN,Dublin 22,,
7076,DB,Req2575802,Capacity Review,Closed,26/09/2018,26/09/2018,0,0,6-Closed,TRACEY TALBOT,7076-DUNGARVAN,Waterford,,
47,HW,Req2575832,Capacity Review,Closed,26/09/2018,26/09/2018,0,0,6-Closed,SARAH COTTOY,47-HARROW,HA12AW,51.5794662,-0.3342997
121,BA,Req2575820,Capacity Review,Closed,26/09/2018,26/09/2018,0,0,6-Closed,DAMIAN BOWBRICK,121-WORTHING,BN111SX,50.8106003,-0.3709521
159,BA,Req2575822,Capacity Review,Closed,26/09/2018,26/09/2018,0,0,6-Closed,JASON MAVRODARIS,159-NEWBURY,RG141AE,51.4034033,-1.32478878
370,HH,Req2575836,Capacity Review,Closed,26/09/2018,26/09/2018,0,0,6-Closed,ALISON RALPH,370-STONEDALE D/T,L119DH,53.45592642,-2.915349449
486,HW,Req2575826,Capacity Review,Closed,26/09/2018,26/09/2018,0,0,6-Closed,SARAH COTTOY,486-RICHMOND,TW91DN,51.462434,-0.3024885
593,CV,Req2575840,Capacity Review,Closed,26/09/2018,26/09/2018,0,0,6-Closed,ALAN GIBSON,593-LADYBRIDGE (TAMWORTH),B783HD,52.6278162,-1.7069801
710,BA,Req2575835,Capacity Review,Closed,26/09/2018,26/09/2018,0,0,6-Closed,JASON MAVRODARIS,710-BASINGSTOKE 2,RG224AN,51.25093173,-1.108857912
805,HH,Req2575828,Capacity Review,Closed,26/09/2018,26/09/2018,0,0,6-Closed,ALISON RALPH,805-CARLISLE 2,CA30ET,54.9258012,-2.9477837
817,BA,Req2575833,Capacity Review,Closed,26/09/2018,26/09/2018,0,0,6-Closed,KATY OBRIEN,817-ASHFORD 2,TN240HT,51.12759243,0.897008205
831,HW,Req2575827,Capacity Review,Closed,26/09/2018,26/09/2018,0,0,6-Closed,MARK PHIPPS,831-BASILDON EASTGATE,SS141AF,51.56926131,0.460762116
861,HH,Req2575839,Capacity Review,Closed,26/09/2018,26/09/2018,0,0,6-Closed,FRANCESCA PARKER,861-ROCHDALE (SANDBROOK),OL111RY,53.60265978,-2.163621193
938,HH,Req2575837,Capacity Review,Closed,26/09/2018,26/09/2018,0,0,6-Closed,ALISON RALPH,938-LEYLAND,PR253LZ,53.69765387,-2.690715148
944,HW,Req2575829,Capacity Review,Closed,26/09/2018,26/09/2018,0,0,6-Closed,KATIE KIRK,944-STRATFORD,E151XA,51.5411614,0.0005082
950,HW,Req2575841,Capacity Review,Closed,26/09/2018,26/09/2018,0,0,6-Closed,KATY OBRIEN,950-DARTFORD BLUE WATER PARK,DA99SF,51.4393249,0.2725019
1067,HW,Req2575824,Capacity Review,Closed,26/09/2018,26/09/2018,0,0,6-Closed,KATY OBRIEN,1067-WOOD GREEN SPOUTERS CORNER,N226EJ,51.59697152,-0.108709111
1349,HW,Req2575838,Capacity Review,Closed,26/09/2018,26/09/2018,0,0,6-Closed,MARK PHIPPS,1349-RAVENSWOOD,IP39QJ,52.03043924,1.199309526
1352,HW,Req2575834,Capacity Review,Closed,26/09/2018,26/09/2018,0,0,6-Closed,MARK PHIPPS,1352-COLCHESTER TOLLGATE,CO38RG,51.8836052,0.8324236
1474,BA,Req2575821,Capacity Review,Closed,26/09/2018,26/09/2018,0,0,6-Closed,JASON MAVRODARIS,1474-BIDEFORD,EX39 3QU,51.0078993,-4.2362355
7007,DB,Req2575825,Capacity Review,Closed,26/09/2018,26/09/2018,0,0,6-Closed,TRACEY TALBOT,7007-WINTHROP STREET,Cork,,
257,BA,Req2575861,Capacity Review,Closed,26/09/2018,26/09/2018,0,0,6-Closed,DAMIAN BOWBRICK,257-CARDIFF,CF1 4BU,51.4815368,-3.1783062
383,HH,Req2575856,Capacity Review,Closed,26/09/2018,26/09/2018,0,0,6-Closed,ALISON RALPH,383-SOUTHPORT 2 D/T,PR85HW,53.63250304,-2.969739247
413,CV,Req2575853,Capacity Review,Closed,26/09/2018,26/09/2018,0,0,6-Closed,ALAN GIBSON,413-SHREWSBURY 2 D/T,SY39NB,52.68883432,-2.75204323
519,HH,Req2575851,Capacity Review,Closed,26/09/2018,26/09/2018,0,0,6-Closed,ALISON RALPH,519-GATEWAY D/T,CH76HB,53.19295,-3.0820463
552,CV,Req2575843,Capacity Review,Closed,26/09/2018,26/09/2018,0,0,6-Closed,ALAN GIBSON,552-CONGLETON D/T,CW121LR,53.168866,-2.2175807
801,CV,Req2575844,Capacity Review,Closed,26/09/2018,26/09/2018,0,0,6-Closed,ALAN GIBSON,801-MEIR (STOKE-ON-TRENT),ST37WA,52.97101134,-2.087961058
809,CV,Req2575862,Capacity Review,Closed,26/09/2018,26/09/2018,0,0,6-Closed,ALAN GIBSON,809-NUNEATON (BERMUDA),CV107SD,52.4973739,-1.4774406
820,HH,Req2575849,Capacity Review,Closed,26/09/2018,26/09/2018,0,0,6-Closed,JAMES LYON,820-BRADFORD FIVE,BD108EG,53.8256333,-1.7332865
1183,HW,Req2575854,Capacity Review,Closed,26/09/2018,26/09/2018,0,0,6-Closed,MARK PHIPPS,1183-SLEAFORD,NG348NP,53.01263641,-0.423474735
1213,HH,Req2575855,Capacity Review,Closed,26/09/2018,26/09/2018,0,0,6-Closed,JAMES LYON,1213-HORSFORTH,LS166EB,53.83885099,-1.610641851
1467,HW,Req2575845,Capacity Review,Closed,26/09/2018,26/09/2018,0,0,6-Closed,MARK PHIPPS,1467-WELLINGBOROUGH 3,NN8 2DP,52.3018599,-0.6930606
1494,DB,Req2575842,Capacity Review,Closed,26/09/2018,26/09/2018,0,0,6-Closed,TRACEY TALBOT,1494-BANBRIDGE,BT32 4LF,,
7001,DB,Req2575850,Capacity Review,Closed,26/09/2018,26/09/2018,0,0,6-Closed,TRACEY TALBOT,7001-GRAFTON ST,Dublin 2,,
7045,DB,Req2575847,Capacity Review,Closed,26/09/2018,26/09/2018,0,0,6-Closed,TRACEY TALBOT,7045-MULLINGAR,Westmeath,,
7049,DB,Req2575858,Capacity Review,Closed,26/09/2018,26/09/2018,0,0,6-Closed,TRACEY TALBOT,7049-NEWBRIDGE,Kildare,,
7057,DB,Req2575846,Capacity Review,Closed,26/09/2018,26/09/2018,0,0,6-Closed,TRACEY TALBOT,7057-BLACKPOOL,Cork,,
7091,DB,Req2575857,Capacity Review,Closed,26/09/2018,26/09/2018,0,0,6-Closed,TRACEY TALBOT,7091-DUBLIN AIRPORT DRIVE THRU,Dublin Airport,,
7099,DB,Req2575860,Capacity Review,Closed,26/09/2018,26/09/2018,0,0,6-Closed,TRACEY TALBOT,7099-CITYWEST ROAD,Dublin,,
7112,DB,Req2575859,Capacity Review,Closed,26/09/2018,26/09/2018,0,0,6-Closed,TRACEY TALBOT,7112-NAAS DT,Kildare,,
995,HH,Req2575848,Capacity Review,Closed,26/09/2018,26/09/2018,0,0,6-Closed,JAMES LYON,995-SUNDERLAND RETAIL PARK,SR60DA,54.91563994,-1.381350994
278,HH,Req2575870,Capacity Review,Closed,26/09/2018,26/09/2018,0,0,6-Closed,JAMES LYON,278-GUISELEY,LS209NE,53.8685865,-1.703085538
300,HW,Req2575876,Capacity Review,Closed,26/09/2018,26/09/2018,0,0,6-Closed,KATY OBRIEN,300-DAGENHAM (1) - WHALEBONE LANE SOUTH,RM81AT,51.56649381,0.144989572
387,HW,Req2575863,Capacity Review,Closed,26/09/2018,26/09/2018,0,0,6-Closed,MARK PHIPPS,387-BASILDON (2) DRIVE THRU,SS143HZ,51.5907748,0.4795391
452,CV,Req2575865,Capacity Review,Closed,26/09/2018,26/09/2018,0,0,6-Closed,ALAN GIBSON,452-COVENTRY '3' DRIVE THRU,CV58BW,52.411292,-1.5283691
452,CV,Req2575866,Capacity Review,Closed,26/09/2018,26/09/2018,0,0,6-Closed,ALAN GIBSON,452-COVENTRY '3' DRIVE THRU,CV58BW,52.411292,-1.5283691
479,HH,Req2575877,Capacity Review,Closed,26/09/2018,26/09/2018,0,0,6-Closed,JAMES LYON,479-DURHAM D/T,DH15GB,54.8067438,-1.5817652
482,HH,Req2575880,Capacity Review,Closed,26/09/2018,26/09/2018,0,0,6-Closed,ALISON RALPH,482-CAPITOL CNTR D/T,PR54AW,53.74881752,-2.677694175
491,BA,Req2575881,Capacity Review,Closed,26/09/2018,26/09/2018,0,0,6-Closed,JASON MAVRODARIS,491-BARNSTAPLE,EX320NX,51.0756815,-4.0459619
525,HW,Req2575872,Capacity Review,Closed,26/09/2018,26/09/2018,0,0,6-Closed,SARAH COTTOY,525-FELTHAM,TW134AE,51.44716385,-0.409604605
631,BA,Req2575879,Capacity Review,Closed,26/09/2018,26/09/2018,0,0,6-Closed,DAMIAN BOWBRICK,631-CROSS HANDS (LLANELLI),SA146RE,51.79482064,-4.075125525
801,CV,Req2575869,Capacity Review,Closed,26/09/2018,26/09/2018,0,0,6-Closed,ALAN GIBSON,801-MEIR (STOKE-ON-TRENT),ST37WA,52.97101134,-2.087961058
831,HW,Req2575867,Capacity Review,Closed,26/09/2018,26/09/2018,0,0,6-Closed,MARK PHIPPS,831-BASILDON EASTGATE,SS141AF,51.56926131,0.460762116
940,HW,Req2575883,Capacity Review,Closed,26/09/2018,26/09/2018,0,0,6-Closed,MARK PHIPPS,940-SPALDING,PE126JP,52.79834245,-0.120747014
1046,CV,Req2575885,Capacity Review,Closed,26/09/2018,26/09/2018,0,0,6-Closed,ALAN GIBSON,1046-NEWCASTLE- 'SPORTSMAN',ST58HS,53.03541103,-2.237770291
1211,HH,Req2575878,Capacity Review,Closed,26/09/2018,26/09/2018,0,0,6-Closed,JAMES LYON,1211-HULL (COTTINGHAM ROAD),HU68QE,53.7701818,-0.381346329
1247,CV,Req2575871,Capacity Review,Closed,26/09/2018,26/09/2018,0,0,6-Closed,DAMIAN BOWBRICK,1247-HARDWICKE,GL24RG,51.8049593,-2.2897987
1278,HH,Req2575884,Capacity Review,Closed,26/09/2018,26/09/2018,0,0,6-Closed,JAMES LYON,1278-ASDA PUDSEY,LS286AR,53.80375487,-1.671398977
1347,BA,Req2575882,Capacity Review,Closed,26/09/2018,26/09/2018,0,0,6-Closed,JASON MAVRODARIS,1347-PORTISHEAD,BS207BY,51.4837863,-2.7646807
1495,HW,Req2575868,Capacity Review,Closed,26/09/2018,26/09/2018,0,0,6-Closed,KATIE KIRK,1495-LEICESTER SQUARE,WC2H 7LU,,
1502,HH,Req2575864,Capacity Review,Closed,26/09/2018,26/09/2018,0,0,6-Closed,ALISON RALPH,1502-LANCASTER CATON ROAD,LA1 1DG,54.0524756,-2.7954325
477,HW,Req2575890,Capacity Review,Closed,26/09/2018,26/09/2018,0,0,6-Closed,KATY OBRIEN,477-THORNTON HEATH DRIVE THRU,CR76XJ,51.3984045,-0.116868
577,HH,Req2575893,Capacity Review,Closed,26/09/2018,26/09/2018,0,0,6-Closed,ALISON RALPH,577-LLANDUDNO D/T,LL301RY,53.31893219,-3.817247804
634,HW,Req2575894,Capacity Review,Closed,26/09/2018,26/09/2018,0,0,6-Closed,KATIE KIRK,634-BECKTON,E66LG,51.5210231,0.0706762
714,HH,Req2575895,Capacity Review,Closed,26/09/2018,26/09/2018,0,0,6-Closed,ALISON RALPH,714-HUYTON,L365RT,53.41019553,-2.838907053
829,HH,Req2575897,Capacity Review,Closed,26/09/2018,26/09/2018,0,0,6-Closed,FRANCESCA PARKER,829-URMSTON,M417FP,53.46293235,-2.358346774
1021,CV,Req2575888,Capacity Review,Closed,26/09/2018,26/09/2018,0,0,6-Closed,ALAN GIBSON,1021-TUNSTALL,ST65PH,53.07174198,-2.215791774
1215,BA,Req2575889,Capacity Review,Closed,26/09/2018,26/09/2018,0,0,6-Closed,DAMIAN BOWBRICK,1215-PEMBROKE DOCK,SA726BP,51.69364555,-4.93244413
1504,HH,Req2575896,Capacity Review,Closed,26/09/2018,26/09/2018,0,0,6-Closed,CALLUM MUNRO,1504-GLASGOW GREAT WESTERN RETAIL PARK,G15 6RX,55.9050871,-4.3774549
7020,DB,Req2575892,Capacity Review,Closed,26/09/2018,26/09/2018,0,0,6-Closed,TRACEY TALBOT,7020-BLACKROCK,Dublin,,
7029,DB,Req2575891,Capacity Review,Closed,26/09/2018,26/09/2018,0,0,6-Closed,TRACEY TALBOT,7029-BRAY,Wicklow,,
62,CV,Req2575928,Capacity Review,Closed,26/09/2018,26/09/2018,0,0,6-Closed,ALAN GIBSON,62-WOLVERHAMPTON 1,WV13ER,52.5846801,-2.1268412
490,BA,Req2575912,Capacity Review,Closed,26/09/2018,26/09/2018,0,0,6-Closed,KATY OBRIEN,490-GATWICK (2) DRIVE THRU,RH60NN,51.15598867,-0.163049116
495,BA,Req2575908,Capacity Review,Closed,26/09/2018,26/09/2018,0,0,6-Closed,JASON MAVRODARIS,495-NEWPORT (2),NP194QR,51.57473354,-2.943942411
584,CV,Req2575913,Capacity Review,Closed,26/09/2018,26/09/2018,0,0,6-Closed,GREG MCLACHLAN,584-TANKERSLEY D/T,S75 3AX,53.49082542,-1.492685736
593,CV,Req2575920,Capacity Review,Closed,26/09/2018,26/09/2018,0,0,6-Closed,ALAN GIBSON,593-LADYBRIDGE (TAMWORTH),B783HD,52.6278162,-1.7069801
696,HH,Req2575914,Capacity Review,Closed,26/09/2018,26/09/2018,0,0,6-Closed,ALISON RALPH,696-WORKINGTON,CA143YW,54.6422406,-3.5636909
724,BA,Req2575926,Capacity Review,Closed,26/09/2018,26/09/2018,0,0,6-Closed,KATY OBRIEN,724-CANTERBURY: STOUR RETAIL PARK,CT11AD,51.2924614,1.1066368
832,HH,Req2575910,Capacity Review,Closed,26/09/2018,26/09/2018,0,0,6-Closed,CALLUM MUNRO,832-COATBRIDGE (A8 SHOWCASE),G697TX,55.8475367,-4.0645178
857,HW,Req2575924,Capacity Review,Closed,26/09/2018,26/09/2018,0,0,6-Closed,MARK PHIPPS,857-BASILDON LEISURE,SS143WE,51.58553173,0.487973079
1370,CV,Req2575925,Capacity Review,Closed,26/09/2018,26/09/2018,0,0,6-Closed,GREG MCLACHLAN,1370-WATFORD GAP MSA,NN67UZ,52.30629257,-1.123174356
1501,CV,Req2575911,Capacity Review,Closed,26/09/2018,26/09/2018,0,0,6-Closed,ALAN GIBSON,1501-STOURBRIDGE,DY8 1JN,,
1505,HH,Req2575915,Capacity Review,Closed,26/09/2018,26/09/2018,0,0,6-Closed,FRANCESCA PARKER,1505-SNOWHILL WAKEFIELD,WF1 2UA,,
1506,HH,Req2575909,Capacity Review,Closed,26/09/2018,26/09/2018,0,0,6-Closed,ALISON RALPH,1506-RAWTENSTALL,BB4 6QX,,
1509,HW,Req2575927,Capacity Review,Closed,26/09/2018,26/09/2018,0,0,6-Closed,GREG MCLACHLAN,1509-MATLOCK,DE4 3AU,,
7040,DB,Req2575923,Capacity Review,Closed,26/09/2018,26/09/2018,0,0,6-Closed,TRACEY TALBOT,7040-MALLOW,Cork,,
7057,DB,Req2575919,Capacity Review,Closed,26/09/2018,26/09/2018,0,0,6-Closed,TRACEY TALBOT,7057-BLACKPOOL,Cork,,
7062,DB,Req2575921,Capacity Review,Closed,26/09/2018,26/09/2018,0,0,6-Closed,TRACEY TALBOT,7062-BLACKPOOL INSTORE,Cork,,
7093,DB,Req2575922,Capacity Review,Closed,26/09/2018,26/09/2018,0,0,6-Closed,TRACEY TALBOT,7093-MUSGRAVE PARK DT,Cork,,
7104,DB,Req2575916,Capacity Review,Closed,26/09/2018,26/09/2018,0,0,6-Closed,TRACEY TALBOT,7104-EAST WALL,Dublin 3,,
7124,DB,Req2575907,Capacity Review,Closed,26/09/2018,26/09/2018,0,0,6-Closed,TRACEY TALBOT,7124-CARLOW 2 DT,Carlow,,
92,CV,Req2575937,Capacity Review,Closed,26/09/2018,26/09/2018,0,0,6-Closed,ALAN GIBSON,92-STAFFORD,ST162JE,52.80660655,-2.117637492
309,HW,Req2575933,Capacity Review,Closed,26/09/2018,26/09/2018,0,0,6-Closed,KATIE KIRK,309-BARKINGSIDE,IG6 2AW,51.588912,0.080677
544,HW,Req2575934,Capacity Review,Closed,26/09/2018,26/09/2018,0,0,6-Closed,MARK PHIPPS,544-SWAFFHAM DRIVE THRU,PE377TZ,52.650068,0.6831847
892,HW,Req2575938,Capacity Review,Closed,26/09/2018,26/09/2018,0,0,6-Closed,SARAH COTTOY,892-NORTH CHEAM,SM39AG,51.37350164,-0.225707683
913,HH,Req2575935,Capacity Review,Closed,26/09/2018,26/09/2018,0,0,6-Closed,CALLUM MUNRO,913-ELGIN,IV301HZ,57.64706975,-3.283901604
928,HW,Req2575939,Capacity Review,Closed,26/09/2018,26/09/2018,0,0,6-Closed,KATY OBRIEN,928-DARTFORD 2,DA99HY,51.4486262,0.2797859
1258,HH,Req2575932,Capacity Review,Closed,26/09/2018,26/09/2018,0,0,6-Closed,FRANCESCA PARKER,1258-ECCLES - WEST ONE,M50 1ZD,53.48279437,-2.327954122
1408,HW,Req2575936,Capacity Review,Closed,26/09/2018,26/09/2018,0,0,6-Closed,MARK PHIPPS,1408-BROADLANDS BRUNDALL NORWICH,NR13 5SR,52.6319226,1.4280654
1500,HW,Req2575930,Capacity Review,Closed,26/09/2018,26/09/2018,0,0,6-Closed,MARK PHIPPS,1500-ELY LEISURE VILLAGE,CB6 2WH,,
1504,HH,Req2575931,Capacity Review,Closed,26/09/2018,26/09/2018,0,0,6-Closed,CALLUM MUNRO,1504-GLASGOW GREAT WESTERN RETAIL PARK,G15 6RX,55.9050871,-4.3774549
913,HH,Req2575950,Capacity Review,Closed,26/09/2018,26/09/2018,0,0,6-Closed,CALLUM MUNRO,913-ELGIN,IV301HZ,57.64706975,-3.283901604
1006,HH,Req2575944,Capacity Review,Closed,26/09/2018,26/09/2018,0,0,6-Closed,CALLUM MUNRO,1006-DUNDEE MONIFIETH,DD54HB,56.4906177,-2.835185
1098,BA,Req2575949,Capacity Review,Closed,26/09/2018,26/09/2018,0,0,6-Closed,JASON MAVRODARIS,1098-TORQUAY 2,TQ27PY,50.48323169,-3.547758703
1176,BA,Req2575947,Capacity Review,Closed,26/09/2018,26/09/2018,0,0,6-Closed,JASON MAVRODARIS,1176-MINEHEAD,TA246DG,51.20410479,-3.463870742
1296,BA,Req2575946,Capacity Review,Closed,26/09/2018,26/09/2018,0,0,6-Closed,DAMIAN BOWBRICK,1296-ASDA CASTLE POINT,BH89UP,50.753175,-1.8397059
1377,HH,Req2575951,Capacity Review,Closed,26/09/2018,26/09/2018,0,0,6-Closed,CALLUM MUNRO,1377-BATHGATE,EH481HE,55.9015434,-3.6463259
1418,BA,Req2575945,Capacity Review,Closed,26/09/2018,26/09/2018,0,0,6-Closed,JASON MAVRODARIS,1418-AMESBURY,SP47SQ,51.17702858,-1.757675645
1500,HW,Req2575948,Capacity Review,Closed,26/09/2018,26/09/2018,0,0,6-Closed,MARK PHIPPS,1500-ELY LEISURE VILLAGE,CB6 2WH,,
1511,HH,Req2575952,Capacity Review,Closed,26/09/2018,26/09/2018,0,0,6-Closed,ALISON RALPH,1511-GREAT HOMER STREET,L5 5AA,,
7026,DB,Req2575953,Capacity Review,Closed,26/09/2018,26/09/2018,0,0,6-Closed,TRACEY TALBOT,7026-TRALEE,Kerry,,
39,HW,Req2575958,Capacity Review,Closed,26/09/2018,26/09/2018,0,0,6-Closed,KATIE KIRK,39-EAST HAM,E62HJ,51.5342264,0.0536842
232,HW,Req2575974,Capacity Review,Closed,26/09/2018,26/09/2018,0,0,6-Closed,ALAN GIBSON,232-LOUGHBOROUGH,LE113EB,52.77156742,-1.206055015
528,HH,Req2575980,Capacity Review,Closed,26/09/2018,26/09/2018,0.000694444,0,6-Closed,ALISON RALPH,528-BLACKBURN 2 D/T,BB24LQ,53.7286117,-2.4920291
544,HW,Req2575966,Capacity Review,Closed,26/09/2018,26/09/2018,0,0,6-Closed,MARK PHIPPS,544-SWAFFHAM DRIVE THRU,PE377TZ,52.650068,0.6831847
661,HW,Req2575955,Capacity Review,Closed,26/09/2018,26/09/2018,0,0,6-Closed,MARK PHIPPS,661-KINGS LYNN 2,PE304YN,52.73985902,0.40739859
723,HH,Req2575960,Capacity Review,Closed,26/09/2018,26/09/2018,0,0,6-Closed,ALAN GIBSON,723-SILK RETAIL PARK (MACCLESFIELD),SK102SF,53.27230445,-2.118599912
741,HW,Req2575961,Capacity Review,Closed,26/09/2018,26/09/2018,0,0,6-Closed,SARAH COTTOY,741-CROYDON: DRUMMOND CENTRE,CR01TY,51.3752569,-0.1023573
743,CV,Req2575967,Capacity Review,Closed,26/09/2018,26/09/2018,0,0,6-Closed,ALAN GIBSON,743-COSELEY,WV149JH,52.54405981,-2.09115761
759,HH,Req2575969,Capacity Review,Closed,26/09/2018,26/09/2018,0,0,6-Closed,JAMES LYON,759-LEEDS WHITE ROSE CENTRE,LS118LU,53.75863503,-1.574222818
861,HH,Req2575965,Capacity Review,Closed,26/09/2018,26/09/2018,0,0,6-Closed,FRANCESCA PARKER,861-ROCHDALE (SANDBROOK),OL111RY,53.60265978,-2.163621193
868,HW,Req2575973,Capacity Review,Closed,26/09/2018,26/09/2018,0,0,6-Closed,MARK PHIPPS,868-IPSWICH CARDINAL LEISURE PARK,IP11UZ,52.05397075,1.152176504
939,HW,Req2575971,Capacity Review,Closed,26/09/2018,26/09/2018,0,0,6-Closed,KATY OBRIEN,939-THAMESMEAD,SE288RD,51.50612853,0.103086766
967,BA,Req2575962,Capacity Review,Closed,26/09/2018,26/09/2018,0,0,6-Closed,DAMIAN BOWBRICK,967-COSHAM,PO62SW,50.83848284,-1.070337037
1067,HW,Req2575979,Capacity Review,Closed,26/09/2018,26/09/2018,0.000694444,0,6-Closed,KATY OBRIEN,1067-WOOD GREEN SPOUTERS CORNER,N226EJ,51.59697152,-0.108709111
1152,CV,Req2575970,Capacity Review,Closed,26/09/2018,26/09/2018,0,0,6-Closed,JAMES LYON,1152-GRIMSBY - BIRCHIN WAY,DN312SG,53.5759731,-0.0997397
1192,HH,Req2575964,Capacity Review,Closed,26/09/2018,26/09/2018,0,0,6-Closed,JAMES LYON,1192-MIDDLESBOROUGH LEISURE PARK,TS42AG,54.57393023,-1.223939286
1280,HW,Req2575959,Capacity Review,Closed,26/09/2018,26/09/2018,0,0,6-Closed,SARAH COTTOY,1280-EAST CROYDON,CR01LG,51.3745291,-0.0962952
1282,CV,Req2575968,Capacity Review,Closed,26/09/2018,26/09/2018,0,0,6-Closed,ALAN GIBSON,1282-UPPER GORNAL,DY31UX,52.5278034,-2.1160493
1314,HH,Req2575956,Capacity Review,Closed,26/09/2018,26/09/2018,0,0,6-Closed,ALISON RALPH,1314-ASDA FULWOOD,PR29NP,53.79114703,-2.68487342
1355,HW,Req2575976,Capacity Review,Closed,26/09/2018,26/09/2018,0.000694444,0,6-Closed,MARK PHIPPS,1355-STANSTED,CM24 1AA,51.8764747,0.2468266
1371,CV,Req2575985,Capacity Review,Closed,26/09/2018,26/09/2018,0.000694444,0,6-Closed,ALAN GIBSON,1371-STRENSHAM SERVICES NORTH,WR8 0BZ,52.0754392,-2.1897109
1415,CV,Req2575957,Capacity Review,Closed,26/09/2018,26/09/2018,0,0,6-Closed,JAMES LYON,1415-NEW SHEFFIELD,S13 9BN,53.37386078,-1.39158128
1507,HW,Req2575972,Capacity Review,Closed,26/09/2018,26/09/2018,0,0,6-Closed,KATIE KIRK,1507-NORTH ACTON,W3 6TJ,,
1512,HW,Req2575963,Capacity Review,Closed,26/09/2018,26/09/2018,0,0,6-Closed,JAMES LYON,1512-DONCASTER THORNE,DN8 5TX,,
7015,DB,Req2575977,Capacity Review,Closed,26/09/2018,26/09/2018,0.000694444,0,6-Closed,TRACEY TALBOT,7015-BELGARD RD,Dublin 24,,
7017,DB,Req2575978,Capacity Review,Closed,26/09/2018,26/09/2018,0.000694444,0,6-Closed,TRACEY TALBOT,7017-O CONNELL BRIDGE,Dublin 1,,
7040,DB,Req2575983,Capacity Review,Closed,26/09/2018,26/09/2018,0.000694444,0,6-Closed,TRACEY TALBOT,7040-MALLOW,Cork,,
7057,DB,Req2575981,Capacity Review,Closed,26/09/2018,26/09/2018,0.000694444,0,6-Closed,TRACEY TALBOT,7057-BLACKPOOL,Cork,,
7062,DB,Req2575984,Capacity Review,Closed,26/09/2018,26/09/2018,0.000694444,0,6-Closed,TRACEY TALBOT,7062-BLACKPOOL INSTORE,Cork,,
7093,DB,Req2575982,Capacity Review,Closed,26/09/2018,26/09/2018,0.000694444,0,6-Closed,TRACEY TALBOT,7093-MUSGRAVE PARK DT,Cork,,
35,HW,Req2576004,Capacity Review,Closed,26/09/2018,26/09/2018,0,0,6-Closed,KATY OBRIEN,35-MARBLE ARCH,W1H 7AP,51.51345743,-0.159528422
118,HW,Req2575989,Capacity Review,Closed,26/09/2018,26/09/2018,0,0,6-Closed,MARK PHIPPS,118-HARLOW,CM201JA,51.769706,0.0939098
479,HH,Req2575994,Capacity Review,Closed,26/09/2018,26/09/2018,0,0,6-Closed,JAMES LYON,479-DURHAM D/T,DH15GB,54.8067438,-1.5817652
522,BA,Req2575993,Capacity Review,Closed,26/09/2018,26/09/2018,0,0,6-Closed,DAMIAN BOWBRICK,522-CARDIFF NORTH (ASDA) DRIVE THRU,CF147HY,51.5240823,-3.24401
553,HW,Req2575988,Capacity Review,Closed,26/09/2018,26/09/2018,0,0,6-Closed,SARAH COTTOY,553-NENE PARK (DRIVE THRU ),NN55QJ,52.23678243,-0.936632528
787,BA,Req2576000,Capacity Review,Closed,26/09/2018,26/09/2018,0,0,6-Closed,DAMIAN BOWBRICK,787-READING (OXFORD ROAD),RG301AS,51.45515407,-0.990914108
878,CV,Req2575999,Capacity Review,Closed,26/09/2018,26/09/2018,0,0,6-Closed,GREG MCLACHLAN,878-CHESTERFIELD LEISURE,S402EZ,53.2293815,-1.42200284
1018,HW,Req2575995,Capacity Review,Closed,26/09/2018,26/09/2018,0,0,6-Closed,KATY OBRIEN,1018-BOBBING,ME98RZ,51.35127961,0.706943486
1229,HH,Req2575998,Capacity Review,Closed,26/09/2018,26/09/2018,0,0,6-Closed,CALLUM MUNRO,1229-STRAITON,EH209PW,55.8846313,-3.1628629
1458,BA,Req2576001,Capacity Review,Closed,26/09/2018,26/09/2018,0,0,6-Closed,JASON MAVRODARIS,1458-POOLE MANNINGS HEATH,BH12 4QY,50.7441845,-1.9543818
1487,BA,Req2576003,Capacity Review,Closed,26/09/2018,26/09/2018,0,0,6-Closed,DAMIAN BOWBRICK,1487-PORTSMOUTH NORTH HARBOUR,PO6 4SR,50.8458183,-1.0973211
1495,HW,Req2576007,Capacity Review,Closed,26/09/2018,26/09/2018,0,0,6-Closed,KATIE KIRK,1495-LEICESTER SQUARE,WC2H 7LU,,
1507,HW,Req2575986,Capacity Review,Closed,26/09/2018,26/09/2018,0,0,6-Closed,KATIE KIRK,1507-NORTH ACTON,W3 6TJ,,
1507,HW,Req2576006,Capacity Review,Closed,26/09/2018,26/09/2018,0,0,6-Closed,KATIE KIRK,1507-NORTH ACTON,W3 6TJ,,
1509,HW,Req2575990,Capacity Review,Closed,26/09/2018,26/09/2018,0,0,6-Closed,GREG MCLACHLAN,1509-MATLOCK,DE4 3AU,,
1509,HW,Req2576005,Capacity Review,Closed,26/09/2018,26/09/2018,0,0,6-Closed,GREG MCLACHLAN,1509-MATLOCK,DE4 3AU,,
7053,DB,Req2575987,Capacity Review,Closed,26/09/2018,26/09/2018,0,0,6-Closed,TRACEY TALBOT,7053-LETTERKENNY,Donegal,,
7087,DB,Req2575991,Capacity Review,Closed,26/09/2018,26/09/2018,0,0,6-Closed,TRACEY TALBOT,7087-AIRSIDE,Dublin,,
7087,DB,Req2575992,Capacity Review,Closed,26/09/2018,26/09/2018,0,0,6-Closed,TRACEY TALBOT,7087-AIRSIDE,Dublin,,
984,BA,Req2576002,Capacity Review,Closed,26/09/2018,26/09/2018,0,0,6-Closed,JASON MAVRODARIS,984-BRISTOL-LONGWELL GREEN,BS159LA,51.4497958,-2.4979594
72,HH,Req2576017,Capacity Review,Closed,26/09/2018,26/09/2018,0,0,6-Closed,ALISON RALPH,72-BLACKPOOL 1,FY14PX,53.8148551,-3.0536396
397,HH,Req2576020,Capacity Review,Closed,26/09/2018,26/09/2018,0,0,6-Closed,ALISON RALPH,397-BLACKPOOL 3 D/T,FY44NY,53.8011335,-3.0114645
405,CV,Req2576025,Capacity Review,Closed,26/09/2018,26/09/2018,0,0,6-Closed,JASON MAVRODARIS,405-GLOUCESTER 2 D/T,GL25DN,51.8396619,-2.2681775
414,CV,Req2576016,Capacity Review,Closed,26/09/2018,26/09/2018,0,0,6-Closed,ALAN GIBSON,414-TELFORD 2 D/T,TF12DE,52.69108503,-2.493032049
431,BA,Req2576026,Capacity Review,Closed,26/09/2018,26/09/2018,0,0,6-Closed,JASON MAVRODARIS,431-BRIDGWATER 'DRIVE THRU',TA64AB,51.1329188,-2.998531704
574,CV,Req2576009,Capacity Review,Closed,26/09/2018,26/09/2018,0,0,6-Closed,DAMIAN BOWBRICK,574-CHELTENHAM 2 D/T,GL519PX,51.9149469,-2.0982341
618,HH,Req2576011,Capacity Review,Closed,26/09/2018,26/09/2018,0,0,6-Closed,CALLUM MUNRO,618-BUCKSBURN,AB219LZ,57.17920705,-2.177198966
624,HW,Req2576023,Capacity Review,Closed,26/09/2018,26/09/2018,0,0,6-Closed,KATY OBRIEN,624-STROOD,ME22AD,51.39520564,0.493012465
635,HH,Req2576031,Capacity Review,Closed,26/09/2018,26/09/2018,0,0,6-Closed,FRANCESCA PARKER,635-OLDHAM BROADWAY,OL25HX,53.55819048,-2.138526106
663,HH,Req2576012,Capacity Review,Closed,26/09/2018,26/09/2018,0,0,6-Closed,CALLUM MUNRO,663-BRIDGE OF DON,AB238EE,57.18649969,-2.096284829
694,HH,Req2576038,Capacity Review,Closed,26/09/2018,26/09/2018,0,0,6-Closed,CALLUM MUNRO,694-GLASGOW HELEN STREET,G521EE,55.852664,-4.3203906
739,BA,Req2576035,Capacity Review,Closed,26/09/2018,26/09/2018,0,0,6-Closed,JASON MAVRODARIS,739-SWAYTHLING : BLACK CAT,SO162JE,50.93788501,-1.380522543
811,BA,Req2576034,Capacity Review,Closed,26/09/2018,26/09/2018,0,0,6-Closed,JASON MAVRODARIS,811-FILTON (BRISTOL) D/T,BS347JL,51.5079211,-2.5645998
828,HW,Req2576032,Capacity Review,Closed,26/09/2018,26/09/2018,0,0,6-Closed,MARK PHIPPS,828-CANVEY ISLAND,SS80PS,51.52684803,0.537194713
832,HH,Req2576014,Capacity Review,Closed,26/09/2018,26/09/2018,0,0,6-Closed,CALLUM MUNRO,832-COATBRIDGE (A8 SHOWCASE),G697TX,55.8475367,-4.0645178
869,HW,Req2576022,Capacity Review,Closed,26/09/2018,26/09/2018,0,0,6-Closed,MARK PHIPPS,869-WELLINGBOROUGH (2),NN82DR,52.28538799,-0.711929538
878,CV,Req2576036,Capacity Review,Closed,26/09/2018,26/09/2018,0,0,6-Closed,GREG MCLACHLAN,878-CHESTERFIELD LEISURE,S402EZ,53.2293815,-1.42200284
941,HH,Req2576019,Capacity Review,Closed,26/09/2018,26/09/2018,0,0,6-Closed,JAMES LYON,941-MIDDLESBOROUGH (COULBY NEWHAM),TS89LX,54.52257121,-1.218702381
945,HW,Req2576021,Capacity Review,Closed,26/09/2018,26/09/2018,0,0,6-Closed,KATY OBRIEN,945-LONDON COLNEY,AL21BX,51.7167805,-0.2784905
949,HH,Req2576033,Capacity Review,Closed,26/09/2018,26/09/2018,0,0,6-Closed,FRANCESCA PARKER,949-SALFORD REGENT ROAD,M54TJ,53.4796425,-2.2810639
961,HH,Req2576024,Capacity Review,Closed,26/09/2018,26/09/2018,0,0,6-Closed,JAMES LYON,961-SHIPLEY,BD17 2TS,53.8351041,-1.7713513
1031,HH,Req2576010,Capacity Review,Closed,26/09/2018,26/09/2018,0,0,6-Closed,CALLUM MUNRO,1031-ARBROATH,DD112NQ,56.5502878,-2.6120795
1090,HH,Req2576013,Capacity Review,Closed,26/09/2018,26/09/2018,0,0,6-Closed,CALLUM MUNRO,1090-CAMPERDOWN DUNDEE,DD24TP,56.4673034,-3.0525698
1121,HH,Req2576037,Capacity Review,Closed,26/09/2018,26/09/2018,0,0,6-Closed,CALLUM MUNRO,1121-CLYDEBANK 2,G812QB,55.9058937,-4.399344
1247,CV,Req2576008,Capacity Review,Closed,26/09/2018,26/09/2018,0,0,6-Closed,DAMIAN BOWBRICK,1247-HARDWICKE,GL24RG,51.8049593,-2.2897987
1251,BA,Req2576015,Capacity Review,Closed,26/09/2018,26/09/2018,0,0,6-Closed,JASON MAVRODARIS,1251-EXMOUTH,EX82NR,50.6312557,-3.375966
1352,HW,Req2576018,Capacity Review,Closed,26/09/2018,26/09/2018,0,0,6-Closed,MARK PHIPPS,1352-COLCHESTER TOLLGATE,CO38RG,51.8836052,0.8324236
1508,HW,Req2576029,Capacity Review,Closed,26/09/2018,26/09/2018,0,0,6-Closed,KATY OBRIEN,1508-BOWATERS,ME8 0FB,,
983,CV,Req2576027,Capacity Review,Closed,26/09/2018,26/09/2018,0,0,6-Closed,ALAN GIBSON,983-HEREFORD 2,HR27HB,52.0431812,-2.7328437
986,HH,Req2576030,Capacity Review,Closed,26/09/2018,26/09/2018,0,0,6-Closed,FRANCESCA PARKER,986-ROCHDALE KINGSWAY,OL165AF,53.61477419,-2.128266462
139,CV,Req2576055,Capacity Review,Closed,26/09/2018,26/09/2018,0,0,6-Closed,JASON MAVRODARIS,139-GLOUCESTER 1,GL12NG,51.8662682,-2.2467113
387,HW,Req2576047,Capacity Review,Closed,26/09/2018,26/09/2018,0,0,6-Closed,MARK PHIPPS,387-BASILDON (2) DRIVE THRU,SS143HZ,51.5907748,0.4795391
441,HH,Req2576057,Capacity Review,Closed,26/09/2018,26/09/2018,0,0,6-Closed,ALISON RALPH,441-WIGAN 2 D/T,WN59AD,53.54009285,-2.649562564
532,BA,Req2576044,Capacity Review,Closed,26/09/2018,26/09/2018,0,0,6-Closed,JASON MAVRODARIS,532-CHIPPENHAM,SN140AF,51.4481868,-2.1497782
604,HW,Req2576056,Capacity Review,Closed,26/09/2018,26/09/2018,0,0,6-Closed,KATIE KIRK,604-STREATHAM PLACE,SW24PZ,51.4458843,-0.1251904
779,HW,Req2576052,Capacity Review,Closed,26/09/2018,26/09/2018,0,0,6-Closed,KATIE KIRK,779-BRENT PARK,NW100NX,51.55171444,-0.261737112
784,HW,Req2576054,Capacity Review,Closed,26/09/2018,26/09/2018,0,0,6-Closed,ALAN GIBSON,784-MANSFIELD LEISURE PARK,NG181BU,53.13618105,-1.199500799
865,HW,Req2576048,Capacity Review,Closed,26/09/2018,26/09/2018,0,0,6-Closed,SARAH COTTOY,865-LOWESTOFT 2,NR337BG,52.44724203,1.727006357
1061,BA,Req2576043,Capacity Review,Closed,26/09/2018,26/09/2018,0,0,6-Closed,JASON MAVRODARIS,1061-MELKSHAM,SN128RP,51.38190763,-2.143167241
1067,HW,Req2576049,Capacity Review,Closed,26/09/2018,26/09/2018,0,0,6-Closed,KATY OBRIEN,1067-WOOD GREEN SPOUTERS CORNER,N226EJ,51.59697152,-0.108709111
1074,BA,Req2576061,Capacity Review,Closed,26/09/2018,26/09/2018,0,0,6-Closed,JASON MAVRODARIS,1074-ST.AUSTELL,PL255BU,50.33290654,-4.792555167
1091,HW,Req2576040,Capacity Review,Closed,26/09/2018,26/09/2018,0,0,6-Closed,MARK PHIPPS,1091-HUNTINGDON,PE297EG,52.35140843,-0.18069958
1097,CV,Req2576046,Capacity Review,Closed,26/09/2018,26/09/2018,0,0,6-Closed,ALAN GIBSON,1097-SMALL HEATH (BIRMINGHAM),B100RJ,52.473044,-1.8729366
1125,HH,Req2576045,Capacity Review,Closed,26/09/2018,26/09/2018,0,0,6-Closed,JAMES LYON,1125-BRIDLINGTON 2,YO164SJ,54.07999692,-0.210975921
1197,HH,Req2576053,Capacity Review,Closed,26/09/2018,26/09/2018,0,0,6-Closed,ALISON RALPH,1197-CHORLEY DRIVE THRU,PR71AQ,53.65284978,-2.628222141
1428,HH,Req2576060,Capacity Review,Closed,26/09/2018,26/09/2018,0,0,6-Closed,ALISON RALPH,1428-KILLINGTON LAKE MSA,LA8 0NW,54.31051804,-2.628102603
1445,HH,Req2576059,Capacity Review,Closed,26/09/2018,26/09/2018,0,0,6-Closed,ALISON RALPH,1445-LEIGH,WN7 5SJ,53.4995173,-2.5277978
1510,BA,Req2576041,Capacity Review,Closed,26/09/2018,26/09/2018,0,0,6-Closed,KATIE KIRK,1510-ALDERSHOT ASH ROAD,GU22 4DD,,
1515,HH,Req2576058,Capacity Review,Closed,26/09/2018,26/09/2018,0,0,6-Closed,ALISON RALPH,1515-CLAYTON SQUARE - LIVERPOOL,L1 1QR,,
977,CV,Req2576042,Capacity Review,Closed,26/09/2018,26/09/2018,0,0,6-Closed,ALAN GIBSON,977-HINCKLEY (2) HINCKLEY FIELDS,LE10 1YJ,52.55635585,-1.377016848
13,HW,Req2576066,Capacity Review,Closed,26/09/2018,26/09/2018,0,0,6-Closed,KATIE KIRK,13-WEMBLEY,HA97BH,51.5532946,-0.2951849
62,CV,Req2576083,Capacity Review,Closed,26/09/2018,26/09/2018,0,0,6-Closed,ALAN GIBSON,62-WOLVERHAMPTON 1,WV13ER,52.5846801,-2.1268412
336,BA,Req2576089,Capacity Review,Closed,26/09/2018,26/09/2018,0,0,6-Closed,DAMIAN BOWBRICK,336-LLANELLI,SA149UY,51.67631564,-4.138884699
404,CV,Req2576084,Capacity Review,Closed,26/09/2018,26/09/2018,0,0,6-Closed,ALAN GIBSON,404-LONGBRIDGE D/T,B459UA,52.3959414,-1.9944741
483,HW,Req2576082,Capacity Review,Closed,26/09/2018,26/09/2018,0,0,6-Closed,KATY OBRIEN,483-PADDINGTON,W21HU,51.51625096,-0.174866487
488,CV,Req2576092,Capacity Review,Closed,26/09/2018,26/09/2018,0,0,6-Closed,ALAN GIBSON,488-YARDLEY D/T,B261DS,52.4596419,-1.8022584
545,HW,Req2576065,Capacity Review,Closed,26/09/2018,26/09/2018,0,0,6-Closed,SARAH COTTOY,545-STEVENAGE (2) DRIVE THRU,SG11TL,51.8944696,-0.1991416
719,CV,Req2576069,Capacity Review,Closed,26/09/2018,26/09/2018,0,0,6-Closed,GREG MCLACHLAN,719-SHEFFIELD FARM ROAD,S22TP,53.37350658,-1.461989813
731,CV,Req2576067,Capacity Review,Closed,26/09/2018,26/09/2018,0,0,6-Closed,GREG MCLACHLAN,731-CANNOCK: CHURCH STREET,WS111DH,52.68946548,-2.025817976
743,CV,Req2576090,Capacity Review,Closed,26/09/2018,26/09/2018,0,0,6-Closed,ALAN GIBSON,743-COSELEY,WV149JH,52.54405981,-2.09115761
834,HW,Req2576076,Capacity Review,Closed,26/09/2018,26/09/2018,0,0,6-Closed,KATY OBRIEN,834-WEMBLEY PARK,HA98TS,51.5612397,-0.280735
956,HH,Req2576068,Capacity Review,Closed,26/09/2018,26/09/2018,0,0,6-Closed,ALISON RALPH,956-CHESTER BROUGHTON,CH40DP,53.1690023,-2.9726429
1024,BA,Req2576062,Capacity Review,Closed,26/09/2018,26/09/2018,0,0,6-Closed,DAMIAN BOWBRICK,1024-TONYPANDY,CF402JQ,51.6317152,-3.4543795
1219,HW,Req2576074,Capacity Review,Closed,26/09/2018,26/09/2018,0,0,6-Closed,KATIE KIRK,1219-MARKS GATE,RM65QT,51.59089885,0.142602033
1221,CV,Req2576085,Capacity Review,Closed,26/09/2018,26/09/2018,0,0,6-Closed,ALAN GIBSON,1221-WOLVERHAMPTON (STAFFORD ROAD),WV106JF,52.60180161,-2.129474608
1259,HW,Req2576081,Capacity Review,Closed,26/09/2018,26/09/2018,0,0,6-Closed,ALAN GIBSON,1259-ASHBY DE LA ZOUCH,LE651JP,52.75150687,-1.445842029
1359,HW,Req2576075,Capacity Review,Closed,26/09/2018,26/09/2018,0,0,6-Closed,SARAH COTTOY,1359-BLETCHLEY STADIUM,MK11ST,51.99879834,-0.731780065
1513,HW,Req2576088,Capacity Review,Closed,26/09/2018,26/09/2018,0,0,6-Closed,JAMES LYON,1513-DONCASTER CENTURION,DN59TP,,
1516,CV,Req2576079,Capacity Review,Closed,26/09/2018,26/09/2018,0,0,6-Closed,ALISON RALPH,1516-NORTHWICH - MANCHESTER ROAD,CW95ND,,
1517,HH,Req2576064,Capacity Review,Closed,26/09/2018,26/09/2018,0,0,6-Closed,JAMES LYON,1517-SKELTON,TS12 2ZL,,
1518,HW,Req2576080,Capacity Review,Closed,26/09/2018,26/09/2018,0,0,6-Closed,MARK PHIPPS,1518-NORWICH THICKTHORN,NR93AU,,
1519,HW,Req2576078,Capacity Review,Closed,26/09/2018,26/09/2018,0,0,6-Closed,SARAH COTTOY,1519-LUTON PARKWAY,LU1 3JH,,
1521,HH,Req2576086,Capacity Review,Closed,26/09/2018,26/09/2018,0,0,6-Closed,ALISON RALPH,1521-WIDNES BOWERS,WA80TA,,
1523,DB,Req2576091,Capacity Review,Closed,26/09/2018,26/09/2018,0,0,6-Closed,TRACEY TALBOT,1523-STRABANE,BT82 8EQ,,
7001,DB,Req2576077,Capacity Review,Closed,26/09/2018,26/09/2018,0,0,6-Closed,TRACEY TALBOT,7001-GRAFTON ST,Dublin 2,,
7011,DB,Req2576071,Capacity Review,Closed,26/09/2018,26/09/2018,0,0,6-Closed,TRACEY TALBOT,7011-DOUGLAS,Cork,,
7014,DB,Req2576063,Capacity Review,Closed,26/09/2018,26/09/2018,0,0,6-Closed,TRACEY TALBOT,7014-THE SQUARE - TALLAGHT,Dublin 24,,
7014,DB,Req2576070,Capacity Review,Closed,26/09/2018,26/09/2018,0,0,6-Closed,TRACEY TALBOT,7014-THE SQUARE - TALLAGHT,Dublin 24,,
7038,DB,Req2576073,Capacity Review,Closed,26/09/2018,26/09/2018,0,0,6-Closed,TRACEY TALBOT,7038-CLONMEL,Tipperary,,
7091,DB,Req2576087,Capacity Review,Closed,26/09/2018,26/09/2018,0,0,6-Closed,TRACEY TALBOT,7091-DUBLIN AIRPORT DRIVE THRU,Dublin Airport,,
221,CV,Req2576107,Capacity Review,Closed,26/09/2018,26/09/2018,0,0,6-Closed,ALAN GIBSON,221-MERRYHILL 1 D/T (DUDLEY),DY51SY,52.4812212,-2.1124072
511,HW,Req2576094,Capacity Review,Closed,26/09/2018,26/09/2018,0,0,6-Closed,ALAN GIBSON,511-COALVILLE D/T,LE673NU,52.73183493,-1.37478602
519,HH,Req2576111,Capacity Review,Closed,26/09/2018,26/09/2018,0,0,6-Closed,ALISON RALPH,519-GATEWAY D/T,CH76HB,53.19295,-3.0820463
723,HH,Req2576109,Capacity Review,Closed,26/09/2018,26/09/2018,0,0,6-Closed,ALAN GIBSON,723-SILK RETAIL PARK (MACCLESFIELD),SK102SF,53.27230445,-2.118599912
810,CV,Req2576097,Capacity Review,Closed,26/09/2018,26/09/2018,0,0,6-Closed,ALAN GIBSON,810-WEDNESFIELD D/T fao sandra,WV111BP,52.59691166,-2.090278445
818,CV,Req2576093,Capacity Review,Closed,26/09/2018,26/09/2018,0,0,6-Closed,ALAN GIBSON,818-WINSFORD,CW73BS,53.1983384,-2.5117843
818,CV,Req2576106,Capacity Review,Closed,26/09/2018,26/09/2018,0,0,6-Closed,ALAN GIBSON,818-WINSFORD,CW73BS,53.1983384,-2.5117843
1007,CV,Req2576108,Capacity Review,Closed,26/09/2018,26/09/2018,0,0,6-Closed,ALAN GIBSON,1007-MERRYHILL  4,DY51SH,52.4799202,-2.1096505
1071,HW,Req2576100,Capacity Review,Closed,26/09/2018,26/09/2018,0,0,6-Closed,MARK PHIPPS,1071-MILTON KEYNES,MK93XS,52.04142662,-0.748697509
1169,CV,Req2576099,Capacity Review,Closed,26/09/2018,26/09/2018,0,0,6-Closed,ALAN GIBSON,1169-CREWE (2),CW16DR,53.091717,-2.4307052
1207,CV,Req2576112,Capacity Review,Closed,26/09/2018,26/09/2018,0,0,6-Closed,JAMES LYON,1207-SCUNTHORPE 2,DN163UA,53.5647935,-0.6167509
1224,HW,Req2576095,Capacity Review,Closed,26/09/2018,26/09/2018,0,0,6-Closed,MARK PHIPPS,1224-BOSTON 2,PE218XZ,52.97868909,-0.023930306
1476,HH,Req2576101,Capacity Review,Closed,26/09/2018,26/09/2018,0,0,6-Closed,CALLUM MUNRO,1476-RUTHERGLEN,G73 1 AE,55.8342574,-4.2081282
1520,HW,Req2576096,Capacity Review,Closed,26/09/2018,26/09/2018,0,0,6-Closed,KATIE KIRK,1520-ST PAULS,EC4M 7AA,,
1524,BA,Req2576102,Capacity Review,Closed,26/09/2018,26/09/2018,0,0,6-Closed,JASON MAVRODARIS,1524-BAYNARDS GREEN,OX27 7SG,,
1524,BA,Req2576110,Capacity Review,Closed,26/09/2018,26/09/2018,0,0,6-Closed,JASON MAVRODARIS,1524-BAYNARDS GREEN,OX27 7SG,,
1525,DB,Req2576113,Capacity Review,Closed,26/09/2018,26/09/2018,0,0,6-Closed,TRACEY TALBOT,1525-SHORE ROAD,BT15 3PR,,
7049,DB,Req2576104,Capacity Review,Closed,26/09/2018,26/09/2018,0,0,6-Closed,TRACEY TALBOT,7049-NEWBRIDGE,Kildare,,
7090,DB,Req2576105,Capacity Review,Closed,26/09/2018,26/09/2018,0,0,6-Closed,TRACEY TALBOT,7090-CARRICKMINES,Dublin 18,,
984,BA,Req2576098,Capacity Review,Closed,26/09/2018,26/09/2018,0,0,6-Closed,JASON MAVRODARIS,984-BRISTOL-LONGWELL GREEN,BS159LA,51.4497958,-2.4979594
59,CV,Req2576120,Capacity Review,Closed,26/09/2018,26/09/2018,0,0,6-Closed,ALAN GIBSON,59-STEPHENSON PLACE - BIRMINGHAM,B24PY,52.4787494,-1.8975235
68,HW,Req2576121,Capacity Review,Closed,26/09/2018,26/09/2018,0,0,6-Closed,SARAH COTTOY,68-KILBURN,NW66JJ,51.5395059,-0.1957397
133,HW,Req2576116,Capacity Review,Closed,26/09/2018,26/09/2018,0,0,6-Closed,KATY OBRIEN,133-ORPINGTON,BR60NN,51.3737953,0.0982949
184,CV,Req2576122,Capacity Review,Closed,26/09/2018,26/09/2018,0,0,6-Closed,ALAN GIBSON,184-HANLEY,ST11PW,53.02545407,-2.173755081
201,HW,Req2576123,Capacity Review,Closed,26/09/2018,26/09/2018,0,0,6-Closed,SARAH COTTOY,201-HAYES,UB34DA,51.5066537,-0.4192636
230,HH,Req2576118,Capacity Review,Closed,26/09/2018,26/09/2018,0,0,6-Closed,FRANCESCA PARKER,230-OXFORD ST M/C,M15EJ,53.47591527,-2.242654014
306,CV,Req2576124,Capacity Review,Closed,26/09/2018,26/09/2018,0,0,6-Closed,ALAN GIBSON,306-BRISTOL ROAD D/T,B57TT,52.4657539,-1.9022638
424,HW,Req2576126,Capacity Review,Closed,26/09/2018,26/09/2018,0,0,6-Closed,KATY OBRIEN,424-HARRINGAY,N41DR,51.57716816,-0.098014346
465,HW,Req2576127,Capacity Review,Closed,26/09/2018,26/09/2018,0,0,6-Closed,GREG MCLACHLAN,465-VALLEY ROAD D/T,NG51JE,52.97890253,-1.174261023
486,HW,Req2576128,Capacity Review,Closed,26/09/2018,26/09/2018,0,0,6-Closed,SARAH COTTOY,486-RICHMOND,TW91DN,51.462434,-0.3024885
566,HW,Req2576129,Capacity Review,Closed,26/09/2018,26/09/2018,0,0,6-Closed,SARAH COTTOY,566-HANWORTH,TW136HB,51.4368566,-0.377302883
650,HH,Req2576130,Capacity Review,Closed,26/09/2018,26/09/2018,0,0,6-Closed,FRANCESCA PARKER,650-MERSEY LIGHTS,M202ZF,53.41989912,-2.259623435
655,HW,Req2576131,Capacity Review,Closed,26/09/2018,26/09/2018,0,0,6-Closed,KATIE KIRK,655-THE HIGHWAY (SHADWELL),E1W 9BU,51.5091326,-0.0612482
751,HH,Req2576132,Capacity Review,Closed,26/09/2018,26/09/2018,0,0,6-Closed,JAMES LYON,751-FORSTER SQUARE(BRADFORD),BD14AG,53.7985412,-1.7532101
786,HH,Req2576133,Capacity Review,Closed,26/09/2018,26/09/2018,0,0,6-Closed,FRANCESCA PARKER,786-HARPURHEY,M94DH,53.51273586,-2.212267874
838,HW,Req2576134,Capacity Review,Closed,26/09/2018,26/09/2018,0,0,6-Closed,KATIE KIRK,838-CATFORD 2,SE62DD,51.44510894,-0.018543947
844,HW,Req2576135,Capacity Review,Closed,26/09/2018,26/09/2018,0,0,6-Closed,KATIE KIRK,844-DAGENHAM LEISURE PARK,RM96UQ,51.53256111,0.135780839
853,CV,Req2576117,Capacity Review,Closed,26/09/2018,26/09/2018,0,0,6-Closed,ALAN GIBSON,853-ABERSTWYTH,SY233TL,52.40588897,-4.068968706
930,HH,Req2576136,Capacity Review,Closed,26/09/2018,26/09/2018,0,0,6-Closed,FRANCESCA PARKER,930-BRADFORD INGLEBY ROAD,BD89AP,53.797414,-1.7839139
972,BA,Req2576137,Capacity Review,Closed,26/09/2018,26/09/2018,0,0,6-Closed,JASON MAVRODARIS,972-EXETER-MARSH BARTON,EX28LH,50.7096027,-3.5359547
1026,HH,Req2576115,Capacity Review,Closed,26/09/2018,26/09/2018,0,0,6-Closed,JAMES LYON,1026-CASTLEFORD GLASSHOUGTHON,WF104TA,53.71017233,-1.341896537
1086,HW,Req2576138,Capacity Review,Closed,26/09/2018,26/09/2018,0,0,6-Closed,SARAH COTTOY,1086-PALMERS GREEN,N135TU,51.61792695,-0.108343598
1199,HH,Req2576139,Capacity Review,Closed,26/09/2018,26/09/2018,0,0,6-Closed,ALISON RALPH,1199-LIVERPOOL - AIGBURTH,L174JP,53.38063428,-2.952294353
1246,HW,Req2576140,Capacity Review,Closed,26/09/2018,26/09/2018,0,0,6-Closed,KATIE KIRK,1246-CUTTY SARK,SE109EJ,51.4817681,-0.010863127
1268,HW,Req2576142,Capacity Review,Closed,26/09/2018,26/09/2018,0,0,6-Closed,MARK PHIPPS,1268-HADLEIGH,SS72PB,51.55340783,0.607212217
1288,HW,Req2576143,Capacity Review,Closed,26/09/2018,26/09/2018,0,0,6-Closed,KATY OBRIEN,1288-ARCHWAY,N195LP,51.56587102,-0.135957235
1306,CV,Req2576119,Capacity Review,Closed,26/09/2018,26/09/2018,0,0,6-Closed,ALAN GIBSON,1306-WEAVERS WHARF,DY101AA,52.3706469,-2.2463128
1320,HH,Req2576144,Capacity Review,Closed,26/09/2018,26/09/2018,0,0,6-Closed,JAMES LYON,1320-HALIFAX ASDA,HX14JT,53.72310563,-1.886210733
1347,BA,Req2576145,Capacity Review,Closed,26/09/2018,26/09/2018,0,0,6-Closed,JASON MAVRODARIS,1347-PORTISHEAD,BS207BY,51.4837863,-2.7646807
1469,BA,Req2576141,Capacity Review,Closed,26/09/2018,26/09/2018,0,0,6-Closed,ALAN GIBSON,1469-POINT ABRAHAM MSA,SA40FU,51.7474683,-4.0659132
1352,HW,Req2576146,Capacity Review,Closed,26/09/2018,26/09/2018,0,0,6-Closed,MARK PHIPPS,1352-COLCHESTER TOLLGATE,CO38RG,51.8836052,0.8324236
945,HW,Req2576272,Capacity Review,Closed,26/09/2018,28/09/2018,1.791666667,0,6-Closed,KATY OBRIEN,945-LONDON COLNEY,AL21BX,51.7167805,-0.2784905
535,BA,Req2577103,Capacity Review,Closed,26/09/2018,28/09/2018,1.686805556,0,6-Closed,SARAH COTTOY,535-DIDCOT DRIVE THRU,OX144TX,51.6188161,-1.3002209
888,BA,Req2579545,Capacity Review,Closed,27/09/2018,28/09/2018,0.995138889,0,6-Closed,KATY OBRIEN,888-BRIGHTON - CHURCHILL SQ,BN12TE,50.8224199,-0.1458012
1429,BA,Req2579567,Capacity Review,Closed,27/09/2018,28/09/2018,0.989583333,0,6-Closed,JASON MAVRODARIS,1429-PICKET POST,BH24 3NH,50.8533571,-1.7501277
1131,HH,Req2579767,Capacity Review,Closed,27/09/2018,03/10/2018,5.820138889,0,6-Closed,JAMES LYON,1131-LEEMING BAR SERVICES,DL81DT,54.233135,-1.5899446
639,HW,Req2579802,Capacity Review,Closed,27/09/2018,28/09/2018,0.930555556,0,6-Closed,MARK PHIPPS,639-ROTHWELL,NN141SS,52.4144672,-0.7900542
1094,HW,Req2579906,Capacity Review,Closed,27/09/2018,28/09/2018,0.861111111,0,6-Closed,ALAN GIBSON,1094-BURTON ON TRENT 3,DE130BB,52.8273303,-1.6207485
840,HH,Req2579908,Capacity Review,Closed,27/09/2018,28/09/2018,0.861111111,0,6-Closed,CALLUM MUNRO,840-GRANGEMOUTH,FK38XP,56.0155897,-3.733923
284,BA,Req2579926,Capacity Review,Closed,27/09/2018,28/09/2018,0.834027778,0,6-Closed,JASON MAVRODARIS,284-BRISTOL (2) - CRIBBS CAUSEWAY,BS107UA,51.525676,-2.6066789
674,HW,Req2579935,Capacity Review,Closed,27/09/2018,28/09/2018,0.821527778,0,6-Closed,ALAN GIBSON,674-KINGSMILL (SUTTON-IN-ASHFIELD),NG174JP,53.1316599,-1.2349029
1107,CV,Req2580639,Capacity Review,Closed,28/09/2018,28/09/2018,0.295138889,0,6-Closed,ALAN GIBSON,1107-KINGS NORTON,B303PN,52.4081677,-1.9193107
706,HH,Req2581225,Capacity Review,Closed,28/09/2018,02/10/2018,3.897916667,0,6-Closed,CALLUM MUNRO,706-LIVINGSTON MALL,EH546HS,55.8837571,-3.5149849
1176,BA,Req2581245,Capacity Review,Closed,28/09/2018,02/10/2018,3.888888889,0,6-Closed,JASON MAVRODARIS,1176-MINEHEAD,TA246DG,51.20410479,-3.463870742
1301,HW,Req2581745,Capacity Review,Closed,28/09/2018,01/10/2018,2.715277778,0,6-Closed,JAMES LYON,1301-SKEGNESS 3,PE253AR,53.19108649,0.349599231
562,BA,Req2582504,Capacity Review,Closed,29/09/2018,11/10/2018,12.25833333,0,6-Closed,JASON MAVRODARIS,562-PATCHWAY,BS34 5TQ,51.5296965,-2.6011967
765,BA,Req2585552,Capacity Review,Closed,30/09/2018,08/10/2018,7.990972222,0,6-Closed,JASON MAVRODARIS,765-FALMOUTH,TR112ER,50.16020632,-5.086195024
495,BA,Req2585631,Capacity Review,Closed,30/09/2018,11/10/2018,10.69583333,0,6-Closed,JASON MAVRODARIS,495-NEWPORT (2),NP194QR,51.57473354,-2.943942411
495,BA,Req2585654,Capacity Review,Closed,30/09/2018,02/10/2018,1.6875,0,6-Closed,JASON MAVRODARIS,495-NEWPORT (2),NP194QR,51.57473354,-2.943942411
639,HW,Req2586527,Capacity Review,Open,01/10/2018,21/02/2019,142.9763486,,3-Awaiting Approval,MARK PHIPPS,639-ROTHWELL,NN141SS,52.4144672,-0.7900542
1199,HH,Req2587571,Capacity Review,Closed,01/10/2018,08/11/2018,37.87638889,0,6-Closed,ALISON RALPH,1199-LIVERPOOL - AIGBURTH,L174JP,53.38063428,-2.952294353
306,CV,Req2587780,Capacity Review,Closed,01/10/2018,24/01/2019,115.3354167,59.34,6-Closed,ALAN GIBSON,306-BRISTOL ROAD D/T,B57TT,52.4657539,-1.9022638
1207,CV,Req2587781,Capacity Review,Closed,01/10/2018,01/10/2018,0.002777778,0,6-Closed,JAMES LYON,1207-SCUNTHORPE 2,DN163UA,53.5647935,-0.6167509
1248,CV,Req2587838,Capacity Review,Closed,01/10/2018,01/10/2018,0.001388889,0,6-Closed,JAMES LYON,1248-SCUNTHORPE 3,DN158TD,53.5888159,-0.6938631
797,HW,Req2588056,Capacity Review,Closed,01/10/2018,01/10/2018,0,0,6-Closed,KATY OBRIEN,797-TILBURY,RM187HZ,51.470884,0.342223409
1151,HW,Req2588080,Capacity Review,Open,01/10/2018,21/02/2019,142.7464875,,4-Awaiting Deployment,KATY OBRIEN,1151-GILLINGHAM 2,ME86AD,51.38084275,0.576551142
892,HW,Req2588117,Capacity Review,Closed,01/10/2018,01/10/2018,0,0,6-Closed,SARAH COTTOY,892-NORTH CHEAM,SM39AG,51.37350164,-0.225707683
1451,CV,Req2588161,Capacity Review,Closed,01/10/2018,01/10/2018,0,0,6-Closed,JAMES LYON,1451-ROTHERHAM,S60 1SG,53.4417318,-1.3482635
1015,BA,Req2588166,Capacity Review,Closed,01/10/2018,05/10/2018,3.834722222,0,6-Closed,JASON MAVRODARIS,1015-REDRUTH,TR15 3PL,50.22620317,-5.275809834
908,BA,Req2589232,Capacity Review,Open,02/10/2018,21/02/2019,141.9666264,,3-Awaiting Approval,JASON MAVRODARIS,908-BRISTOL (HENGROVE),L4 4BB,51.4163475,-2.5871399
908,BA,Req2589235,Capacity Review,Closed,02/10/2018,02/10/2018,0.231944444,0,6-Closed,JASON MAVRODARIS,908-BRISTOL (HENGROVE),L4 4BB,51.4163475,-2.5871399
491,BA,Req2589375,Capacity Review,Closed,02/10/2018,02/10/2018,0.119444444,0,6-Closed,JASON MAVRODARIS,491-BARNSTAPLE,EX320NX,51.0756815,-4.0459619
765,BA,Req2590348,Capacity Review,Closed,02/10/2018,02/10/2018,0,0,6-Closed,JASON MAVRODARIS,765-FALMOUTH,TR112ER,50.16020632,-5.086195024
743,CV,Req2590375,Capacity Review,Open,02/10/2018,21/02/2019,141.7964875,,4-Awaiting Deployment,ALAN GIBSON,743-COSELEY,WV149JH,52.54405981,-2.09115761
278,HH,Req2590398,Capacity Review,Closed,02/10/2018,02/10/2018,0.125,0,6-Closed,JAMES LYON,278-GUISELEY,LS209NE,53.8685865,-1.703085538
891,CV,Req2590440,Capacity Review,Open,02/10/2018,21/02/2019,141.7721819,,4-Awaiting Deployment,ALAN GIBSON,891-BILSTON,WV140EZ,52.5639345,-2.081403469
633,HH,Req2592093,Capacity Review,Open,03/10/2018,21/02/2019,141.0180153,,3-Awaiting Approval,JAMES LYON,633-FAMILY RESTURANTS LTD PONTEFRACT,WF84PR,53.69726481,-1.319303357
697,BA,Req2592420,Capacity Review,Open,03/10/2018,21/02/2019,140.8971819,,3-Awaiting Approval,DAMIAN BOWBRICK,697-SOUTHAMPTON ESPLANADE,SO151BA,50.90420823,-1.41005269
1241,BA,Req2592487,Capacity Review,Open,03/10/2018,21/02/2019,140.8874597,,3-Awaiting Approval,DAMIAN BOWBRICK,1241-BLACKWOOD,NP120NT,51.66933488,-3.194612208
522,BA,Req2595431,Capacity Review,Closed,04/10/2018,04/10/2018,0.103472222,0,6-Closed,DAMIAN BOWBRICK,522-CARDIFF NORTH (ASDA) DRIVE THRU,CF147HY,51.5240823,-3.24401
522,BA,Req2595513,Capacity Review,Closed,04/10/2018,04/10/2018,0.100694444,0,6-Closed,DAMIAN BOWBRICK,522-CARDIFF NORTH (ASDA) DRIVE THRU,CF147HY,51.5240823,-3.24401
1171,BA,Req2595773,Capacity Review,Closed,04/10/2018,11/10/2018,6.980555556,0,6-Closed,DAMIAN BOWBRICK,1171-PETERSFIELD,GU323BS,51.008661,-0.9524387
1272,HH,Req2596988,Capacity Review,Closed,05/10/2018,30/11/2018,56.08888889,0.09,6-Closed,JAMES LYON,1272-BRIGHOUSE,HD64BT,53.7179406,-1.7783356
152,CV,Req2598575,Capacity Review,Closed,06/10/2018,08/10/2018,2.414583333,0,6-Closed,JAMES LYON,152-GRIMSBY,DN311DG,53.5650999,-0.0864856
1154,HH,Req2599849,Capacity Review,Closed,06/10/2018,08/10/2018,1.690972222,0,6-Closed,ALISON RALPH,1154-HOLYWELL 'SINGING KETTLE',CH88RF,53.2737218,-3.3052663
284,BA,Req2601812,Capacity Review,Closed,07/10/2018,08/10/2018,1.107638889,0,6-Closed,JASON MAVRODARIS,284-BRISTOL (2) - CRIBBS CAUSEWAY,BS107UA,51.525676,-2.6066789
1227,BA,Req2602260,Capacity Review,Closed,07/10/2018,10/10/2018,2.415972222,0,6-Closed,DAMIAN BOWBRICK,1227-PONTYPRIDD (TREFOREST),CF157QX,51.5656118,-3.2745326
909,BA,Req2603158,Capacity Review,Closed,08/10/2018,09/10/2018,1.172916667,0,6-Closed,JASON MAVRODARIS,909-NEWPORT CARDIFF ROAD,NP203BA,51.57244478,-3.010386209
1464,HW,Req2604655,Capacity Review,Closed,08/10/2018,08/10/2018,0.000694444,0,6-Closed,MARK PHIPPS,1464-BARTON MILLS,IP28 6AE,52.3383872,0.5334187
18,HW,Req2604661,Capacity Review,Closed,08/10/2018,08/10/2018,0.001388889,0,6-Closed,KATY OBRIEN,18-ROMFORD (1) - SOUTH ST.,RM11NX,51.5759537,0.1831182
1318,HH,Req2604723,Capacity Review,Open,08/10/2018,21/02/2019,135.6367653,,3-Awaiting Approval,ALISON RALPH,1318-SKELMERSDALE,WN86LQ,53.55000011,-2.77172794
876,HH,Req2604756,Capacity Review,Closed,08/10/2018,08/10/2018,0.000694444,0,6-Closed,FRANCESCA PARKER,876-PENDLEBURY,M278BB,53.51447823,-2.324820909
1171,BA,Req2605691,Capacity Review,Open,09/10/2018,21/02/2019,135.0062097,,1-Visit Required,DAMIAN BOWBRICK,1171-PETERSFIELD,GU323BS,51.008661,-0.9524387
